[
    {
      "city": "Bangkok", 
      "lat": "13.7500", 
      "lng": "100.5167", 
      "country": "Thailand", 
      "iso2": "TH", 
      "admin_name": "Krung Thep Maha Nakhon", 
      "capital": "primary", 
      "population": "17066000", 
      "population_proper": "5782000"
    }, 
    {
      "city": "Nonthaburi", 
      "lat": "13.8667", 
      "lng": "100.5167", 
      "country": "Thailand", 
      "iso2": "TH", 
      "admin_name": "Nonthaburi", 
      "capital": "admin", 
      "population": "255671", 
      "population_proper": "255671"
    }, 
    {
      "city": "Pak Kret", 
      "lat": "13.9125", 
      "lng": "100.4978", 
      "country": "Thailand", 
      "iso2": "TH", 
      "admin_name": "Nonthaburi", 
      "capital": "minor", 
      "population": "184501", 
      "population_proper": "184501"
    }, 
    {
      "city": "Hat Yai", 
      "lat": "7.0167", 
      "lng": "100.4667", 
      "country": "Thailand", 
      "iso2": "TH", 
      "admin_name": "Songkhla", 
      "capital": "minor", 
      "population": "159130", 
      "population_proper": "159130"
    }, 
    {
      "city": "Nakhon Ratchasima", 
      "lat": "14.9736", 
      "lng": "102.0831", 
      "country": "Thailand", 
      "iso2": "TH", 
      "admin_name": "Nakhon Ratchasima", 
      "capital": "admin", 
      "population": "134440", 
      "population_proper": "134440"
    }, 
    {
      "city": "Chiang Mai", 
      "lat": "18.7889", 
      "lng": "98.9833", 
      "country": "Thailand", 
      "iso2": "TH", 
      "admin_name": "Chiang Mai", 
      "capital": "admin", 
      "population": "132634", 
      "population_proper": "132634"
    }, 
    {
      "city": "Surat Thani", 
      "lat": "9.1397", 
      "lng": "99.3306", 
      "country": "Thailand", 
      "iso2": "TH", 
      "admin_name": "Surat Thani", 
      "capital": "admin", 
      "population": "130703", 
      "population_proper": "130703"
    }, 
    {
      "city": "Udon Thani", 
      "lat": "17.4253", 
      "lng": "102.7902", 
      "country": "Thailand", 
      "iso2": "TH", 
      "admin_name": "Udon Thani", 
      "capital": "admin", 
      "population": "130274", 
      "population_proper": "130274"
    }, 
    {
      "city": "Ban Bang Pu Mai", 
      "lat": "13.5441", 
      "lng": "100.6175", 
      "country": "Thailand", 
      "iso2": "TH", 
      "admin_name": "Samut Prakan", 
      "capital": "", 
      "population": "120058", 
      "population_proper": "120058"
    }, 
    {
      "city": "Khon Kaen", 
      "lat": "16.4297", 
      "lng": "102.8297", 
      "country": "Thailand", 
      "iso2": "TH", 
      "admin_name": "Khon Kaen", 
      "capital": "admin", 
      "population": "115928", 
      "population_proper": "115928"
    }, 
    {
      "city": "Phatthaya", 
      "lat": "12.9496", 
      "lng": "100.8930", 
      "country": "Thailand", 
      "iso2": "TH", 
      "admin_name": "Chon Buri", 
      "capital": "", 
      "population": "115840", 
      "population_proper": "115840"
    }, 
    {
      "city": "Nakhon Si Thammarat", 
      "lat": "8.4363", 
      "lng": "99.9630", 
      "country": "Thailand", 
      "iso2": "TH", 
      "admin_name": "Nakhon Si Thammarat", 
      "capital": "admin", 
      "population": "106322", 
      "population_proper": "106322"
    }, 
    {
      "city": "Ban Mangkon", 
      "lat": "13.6138", 
      "lng": "100.6104", 
      "country": "Thailand", 
      "iso2": "TH", 
      "admin_name": "Samut Prakan", 
      "capital": "", 
      "population": "102291", 
      "population_proper": "102291"
    }, 
    {
      "city": "Nakhon Sawan", 
      "lat": "15.7133", 
      "lng": "100.1353", 
      "country": "Thailand", 
      "iso2": "TH", 
      "admin_name": "Nakhon Sawan", 
      "capital": "admin", 
      "population": "86439", 
      "population_proper": "86439"
    }, 
    {
      "city": "Ban Talat Rangsit", 
      "lat": "13.9870", 
      "lng": "100.6095", 
      "country": "Thailand", 
      "iso2": "TH", 
      "admin_name": "Pathum Thani", 
      "capital": "", 
      "population": "79319", 
      "population_proper": "79319"
    }, 
    {
      "city": "Ubon Ratchathani", 
      "lat": "15.2281", 
      "lng": "104.8594", 
      "country": "Thailand", 
      "iso2": "TH", 
      "admin_name": "Ubon Ratchathani", 
      "capital": "admin", 
      "population": "79023", 
      "population_proper": "79023"
    }, 
    {
      "city": "Nakhon Pathom", 
      "lat": "13.8194", 
      "lng": "100.0581", 
      "country": "Thailand", 
      "iso2": "TH", 
      "admin_name": "Nakhon Pathom", 
      "capital": "admin", 
      "population": "78780", 
      "population_proper": "78780"
    }, 
    {
      "city": "Phuket", 
      "lat": "7.8881", 
      "lng": "98.3975", 
      "country": "Thailand", 
      "iso2": "TH", 
      "admin_name": "Phuket", 
      "capital": "admin", 
      "population": "77610", 
      "population_proper": "77610"
    }, 
    {
      "city": "Phitsanulok", 
      "lat": "16.8158", 
      "lng": "100.2636", 
      "country": "Thailand", 
      "iso2": "TH", 
      "admin_name": "Phitsanulok", 
      "capital": "admin", 
      "population": "70871", 
      "population_proper": "70871"
    }, 
    {
      "city": "Chiang Rai", 
      "lat": "19.9094", 
      "lng": "99.8275", 
      "country": "Thailand", 
      "iso2": "TH", 
      "admin_name": "Chiang Rai", 
      "capital": "admin", 
      "population": "70610", 
      "population_proper": "70610"
    }, 
    {
      "city": "Ko Samui", 
      "lat": "9.5157", 
      "lng": "99.9436", 
      "country": "Thailand", 
      "iso2": "TH", 
      "admin_name": "Surat Thani", 
      "capital": "minor", 
      "population": "68994", 
      "population_proper": "68994"
    }, 
    {
      "city": "Ban Suan", 
      "lat": "13.3616", 
      "lng": "100.9795", 
      "country": "Thailand", 
      "iso2": "TH", 
      "admin_name": "Chon Buri", 
      "capital": "", 
      "population": "66092", 
      "population_proper": "66092"
    }, 
    {
      "city": "Songkhla", 
      "lat": "7.2061", 
      "lng": "100.5967", 
      "country": "Thailand", 
      "iso2": "TH", 
      "admin_name": "Songkhla", 
      "capital": "admin", 
      "population": "63834", 
      "population_proper": "63834"
    }, 
    {
      "city": "Rayong", 
      "lat": "12.6742", 
      "lng": "101.2789", 
      "country": "Thailand", 
      "iso2": "TH", 
      "admin_name": "Rayong", 
      "capital": "admin", 
      "population": "61902", 
      "population_proper": "61902"
    }, 
    {
      "city": "Saraburi", 
      "lat": "14.5286", 
      "lng": "100.9114", 
      "country": "Thailand", 
      "iso2": "TH", 
      "admin_name": "Sara Buri", 
      "capital": "admin", 
      "population": "61750", 
      "population_proper": "61750"
    }, 
    {
      "city": "Yala", 
      "lat": "6.5397", 
      "lng": "101.2811", 
      "country": "Thailand", 
      "iso2": "TH", 
      "admin_name": "Yala", 
      "capital": "admin", 
      "population": "61250", 
      "population_proper": "61250"
    }, 
    {
      "city": "Trang", 
      "lat": "7.5561", 
      "lng": "99.6114", 
      "country": "Thailand", 
      "iso2": "TH", 
      "admin_name": "Trang", 
      "capital": "admin", 
      "population": "60591", 
      "population_proper": "60591"
    }, 
    {
      "city": "Samut Sakhon", 
      "lat": "13.5486", 
      "lng": "100.2775", 
      "country": "Thailand", 
      "iso2": "TH", 
      "admin_name": "Samut Sakhon", 
      "capital": "admin", 
      "population": "60103", 
      "population_proper": "60103"
    }, 
    {
      "city": "Ban Bang Kaeo", 
      "lat": "13.6371", 
      "lng": "100.6636", 
      "country": "Thailand", 
      "iso2": "TH", 
      "admin_name": "Samut Prakan", 
      "capital": "", 
      "population": "59478", 
      "population_proper": "59478"
    }, 
    {
      "city": "Hua Hin", 
      "lat": "12.5686", 
      "lng": "99.9578", 
      "country": "Thailand", 
      "iso2": "TH", 
      "admin_name": "Prachuap Khiri Khan", 
      "capital": "minor", 
      "population": "59369", 
      "population_proper": "59369"
    }, 
    {
      "city": "Ban Rangsit", 
      "lat": "14.0167", 
      "lng": "100.7500", 
      "country": "Thailand", 
      "iso2": "TH", 
      "admin_name": "Pathum Thani", 
      "capital": "", 
      "population": "58838", 
      "population_proper": "58838"
    }, 
    {
      "city": "Khlong Luang", 
      "lat": "14.0649", 
      "lng": "100.6447", 
      "country": "Thailand", 
      "iso2": "TH", 
      "admin_name": "Pathum Thani", 
      "capital": "minor", 
      "population": "56128", 
      "population_proper": "56128"
    }, 
    {
      "city": "Lampang", 
      "lat": "18.3000", 
      "lng": "99.5000", 
      "country": "Thailand", 
      "iso2": "TH", 
      "admin_name": "Lampang", 
      "capital": "admin", 
      "population": "55044", 
      "population_proper": "55044"
    }, 
    {
      "city": "Prachuap Khiri Khan", 
      "lat": "11.8067", 
      "lng": "99.7956", 
      "country": "Thailand", 
      "iso2": "TH", 
      "admin_name": "Prachuap Khiri Khan", 
      "capital": "admin", 
      "population": "54018", 
      "population_proper": "54018"
    }, 
    {
      "city": "Sakon Nakhon", 
      "lat": "17.1564", 
      "lng": "104.1456", 
      "country": "Thailand", 
      "iso2": "TH", 
      "admin_name": "Sakon Nakhon", 
      "capital": "admin", 
      "population": "53618", 
      "population_proper": "53618"
    }, 
    {
      "city": "Phra Nakhon Si Ayutthaya", 
      "lat": "14.3594", 
      "lng": "100.5761", 
      "country": "Thailand", 
      "iso2": "TH", 
      "admin_name": "Phra Nakhon Si Ayutthaya", 
      "capital": "admin", 
      "population": "52952", 
      "population_proper": "52952"
    }, 
    {
      "city": "Maha Sarakham", 
      "lat": "16.1772", 
      "lng": "103.3008", 
      "country": "Thailand", 
      "iso2": "TH", 
      "admin_name": "Maha Sarakham", 
      "capital": "admin", 
      "population": "52866", 
      "population_proper": "52866"
    }, 
    {
      "city": "Muban Saeng Bua Thong", 
      "lat": "13.9424", 
      "lng": "100.3913", 
      "country": "Thailand", 
      "iso2": "TH", 
      "admin_name": "Nonthaburi", 
      "capital": "", 
      "population": "51932", 
      "population_proper": "51932"
    }, 
    {
      "city": "Samut Prakan", 
      "lat": "13.6004", 
      "lng": "100.5964", 
      "country": "Thailand", 
      "iso2": "TH", 
      "admin_name": "Samut Prakan", 
      "capital": "admin", 
      "population": "51309", 
      "population_proper": "51309"
    }, 
    {
      "city": "Bang Bua Thong", 
      "lat": "13.9099", 
      "lng": "100.4263", 
      "country": "Thailand", 
      "iso2": "TH", 
      "admin_name": "Nonthaburi", 
      "capital": "minor", 
      "population": "50141", 
      "population_proper": "50141"
    }, 
    {
      "city": "Nong Khai", 
      "lat": "17.8842", 
      "lng": "102.7467", 
      "country": "Thailand", 
      "iso2": "TH", 
      "admin_name": "Nong Khai", 
      "capital": "admin", 
      "population": "48274", 
      "population_proper": "48274"
    }, 
    {
      "city": "Ban Plai Bua Phatthana", 
      "lat": "13.9032", 
      "lng": "100.3989", 
      "country": "Thailand", 
      "iso2": "TH", 
      "admin_name": "Pathum Thani", 
      "capital": "", 
      "population": "46274", 
      "population_proper": "46274"
    }, 
    {
      "city": "Ban Bang Mae Nang", 
      "lat": "13.8815", 
      "lng": "100.3759", 
      "country": "Thailand", 
      "iso2": "TH", 
      "admin_name": "Nonthaburi", 
      "capital": "", 
      "population": "45974", 
      "population_proper": "45974"
    }, 
    {
      "city": "Ban Pet", 
      "lat": "16.4379", 
      "lng": "102.7645", 
      "country": "Thailand", 
      "iso2": "TH", 
      "admin_name": "Khon Kaen", 
      "capital": "", 
      "population": "44293", 
      "population_proper": "44293"
    }, 
    {
      "city": "Pattani", 
      "lat": "6.8664", 
      "lng": "101.2508", 
      "country": "Thailand", 
      "iso2": "TH", 
      "admin_name": "Pattani", 
      "capital": "admin", 
      "population": "44234", 
      "population_proper": "44234"
    }, 
    {
      "city": "Singhanakhon", 
      "lat": "7.2389", 
      "lng": "100.5506", 
      "country": "Thailand", 
      "iso2": "TH", 
      "admin_name": "Songkhla", 
      "capital": "minor", 
      "population": "44128", 
      "population_proper": "44128"
    }, 
    {
      "city": "Si Sa Ket", 
      "lat": "15.1072", 
      "lng": "104.3291", 
      "country": "Thailand", 
      "iso2": "TH", 
      "admin_name": "Sisaket", 
      "capital": "admin", 
      "population": "42405", 
      "population_proper": "42405"
    }, 
    {
      "city": "Bang Kruai", 
      "lat": "13.8042", 
      "lng": "100.4755", 
      "country": "Thailand", 
      "iso2": "TH", 
      "admin_name": "Nonthaburi", 
      "capital": "minor", 
      "population": "42390", 
      "population_proper": "42390"
    }, 
    {
      "city": "Su-ngai Kolok", 
      "lat": "6.0297", 
      "lng": "101.9668", 
      "country": "Thailand", 
      "iso2": "TH", 
      "admin_name": "Narathiwat", 
      "capital": "minor", 
      "population": "41590", 
      "population_proper": "41590"
    }, 
    {
      "city": "Narathiwat", 
      "lat": "6.4264", 
      "lng": "101.8231", 
      "country": "Thailand", 
      "iso2": "TH", 
      "admin_name": "Narathiwat", 
      "capital": "admin", 
      "population": "41342", 
      "population_proper": "41342"
    }, 
    {
      "city": "Ban Na Pa", 
      "lat": "13.3956", 
      "lng": "101.0232", 
      "country": "Thailand", 
      "iso2": "TH", 
      "admin_name": "Chon Buri", 
      "capital": "", 
      "population": "40899", 
      "population_proper": "40899"
    }, 
    {
      "city": "Surin", 
      "lat": "14.8864", 
      "lng": "103.4932", 
      "country": "Thailand", 
      "iso2": "TH", 
      "admin_name": "Surin", 
      "capital": "admin", 
      "population": "39728", 
      "population_proper": "39728"
    }, 
    {
      "city": "Chachoengsao", 
      "lat": "13.6903", 
      "lng": "101.0703", 
      "country": "Thailand", 
      "iso2": "TH", 
      "admin_name": "Chachoengsao", 
      "capital": "admin", 
      "population": "39570", 
      "population_proper": "39570"
    }, 
    {
      "city": "Ban Bang Khu Lat", 
      "lat": "13.9134", 
      "lng": "100.3690", 
      "country": "Thailand", 
      "iso2": "TH", 
      "admin_name": "Nonthaburi", 
      "capital": "", 
      "population": "38758", 
      "population_proper": "38758"
    }, 
    {
      "city": "Chaiyaphum", 
      "lat": "15.8056", 
      "lng": "102.0311", 
      "country": "Thailand", 
      "iso2": "TH", 
      "admin_name": "Chaiyaphum", 
      "capital": "admin", 
      "population": "36923", 
      "population_proper": "36923"
    }, 
    {
      "city": "Ratchaburi", 
      "lat": "13.5367", 
      "lng": "99.8169", 
      "country": "Thailand", 
      "iso2": "TH", 
      "admin_name": "Ratchaburi", 
      "capital": "admin", 
      "population": "36339", 
      "population_proper": "36339"
    }, 
    {
      "city": "Ban Mueang Na Tai", 
      "lat": "19.5932", 
      "lng": "98.9618", 
      "country": "Thailand", 
      "iso2": "TH", 
      "admin_name": "Chiang Mai", 
      "capital": "", 
      "population": "36156", 
      "population_proper": "36156"
    }, 
    {
      "city": "Pak Chong", 
      "lat": "14.6796", 
      "lng": "101.3976", 
      "country": "Thailand", 
      "iso2": "TH", 
      "admin_name": "Nakhon Ratchasima", 
      "capital": "minor", 
      "population": "35736", 
      "population_proper": "35736"
    }, 
    {
      "city": "Cha-am", 
      "lat": "12.7992", 
      "lng": "99.9683", 
      "country": "Thailand", 
      "iso2": "TH", 
      "admin_name": "Phetchaburi", 
      "capital": "minor", 
      "population": "35581", 
      "population_proper": "35581"
    }, 
    {
      "city": "Roi Et", 
      "lat": "16.0533", 
      "lng": "103.6513", 
      "country": "Thailand", 
      "iso2": "TH", 
      "admin_name": "Roi Et", 
      "capital": "admin", 
      "population": "35219", 
      "population_proper": "35219"
    }, 
    {
      "city": "Phatthalung", 
      "lat": "7.6178", 
      "lng": "100.0778", 
      "country": "Thailand", 
      "iso2": "TH", 
      "admin_name": "Phatthalung", 
      "capital": "admin", 
      "population": "35039", 
      "population_proper": "35039"
    }, 
    {
      "city": "Kalasin", 
      "lat": "16.4333", 
      "lng": "103.5000", 
      "country": "Thailand", 
      "iso2": "TH", 
      "admin_name": "Kalasin", 
      "capital": "admin", 
      "population": "34437", 
      "population_proper": "34437"
    }, 
    {
      "city": "Phra Phutthabat", 
      "lat": "14.7212", 
      "lng": "100.8047", 
      "country": "Thailand", 
      "iso2": "TH", 
      "admin_name": "Sara Buri", 
      "capital": "minor", 
      "population": "34322", 
      "population_proper": "34322"
    }, 
    {
      "city": "Uttaradit", 
      "lat": "17.6256", 
      "lng": "100.0942", 
      "country": "Thailand", 
      "iso2": "TH", 
      "admin_name": "Uttaradit", 
      "capital": "admin", 
      "population": "33930", 
      "population_proper": "33930"
    }, 
    {
      "city": "Chumphon", 
      "lat": "10.4939", 
      "lng": "99.1800", 
      "country": "Thailand", 
      "iso2": "TH", 
      "admin_name": "Chumphon", 
      "capital": "admin", 
      "population": "33516", 
      "population_proper": "33516"
    }, 
    {
      "city": "Ban Pak Phun", 
      "lat": "8.5391", 
      "lng": "99.9702", 
      "country": "Thailand", 
      "iso2": "TH", 
      "admin_name": "Nakhon Si Thammarat", 
      "capital": "", 
      "population": "33407", 
      "population_proper": "33407"
    }, 
    {
      "city": "Mukdahan", 
      "lat": "16.5431", 
      "lng": "104.7228", 
      "country": "Thailand", 
      "iso2": "TH", 
      "admin_name": "Mukdahan", 
      "capital": "admin", 
      "population": "33102", 
      "population_proper": "33102"
    }, 
    {
      "city": "Ban Ang Sila", 
      "lat": "13.3364", 
      "lng": "100.9278", 
      "country": "Thailand", 
      "iso2": "TH", 
      "admin_name": "Chon Buri", 
      "capital": "", 
      "population": "33053", 
      "population_proper": "33053"
    }, 
    {
      "city": "Chum Phae", 
      "lat": "16.5431", 
      "lng": "102.1104", 
      "country": "Thailand", 
      "iso2": "TH", 
      "admin_name": "Khon Kaen", 
      "capital": "minor", 
      "population": "31597", 
      "population_proper": "31597"
    }, 
    {
      "city": "Mae Sot", 
      "lat": "16.7101", 
      "lng": "98.5707", 
      "country": "Thailand", 
      "iso2": "TH", 
      "admin_name": "Tak", 
      "capital": "minor", 
      "population": "31530", 
      "population_proper": "31530"
    }, 
    {
      "city": "Ban Chang", 
      "lat": "12.7209", 
      "lng": "101.0669", 
      "country": "Thailand", 
      "iso2": "TH", 
      "admin_name": "Rayong", 
      "capital": "minor", 
      "population": "30983", 
      "population_proper": "30983"
    }, 
    {
      "city": "Ban Sai Ma Tai", 
      "lat": "13.8444", 
      "lng": "100.4829", 
      "country": "Thailand", 
      "iso2": "TH", 
      "admin_name": "Nonthaburi", 
      "capital": "", 
      "population": "30750", 
      "population_proper": "30750"
    }, 
    {
      "city": "Thung Song", 
      "lat": "8.1669", 
      "lng": "99.6745", 
      "country": "Thailand", 
      "iso2": "TH", 
      "admin_name": "Nakhon Si Thammarat", 
      "capital": "minor", 
      "population": "30500", 
      "population_proper": "30500"
    }, 
    {
      "city": "Krabi", 
      "lat": "8.0592", 
      "lng": "98.9189", 
      "country": "Thailand", 
      "iso2": "TH", 
      "admin_name": "Krabi", 
      "capital": "admin", 
      "population": "30499", 
      "population_proper": "30499"
    }, 
    {
      "city": "Samrong", 
      "lat": "13.6421", 
      "lng": "100.6039", 
      "country": "Thailand", 
      "iso2": "TH", 
      "admin_name": "Samut Prakan", 
      "capital": "", 
      "population": "30382", 
      "population_proper": "30382"
    }, 
    {
      "city": "Chon Buri", 
      "lat": "13.3611", 
      "lng": "100.9850", 
      "country": "Thailand", 
      "iso2": "TH", 
      "admin_name": "Chon Buri", 
      "capital": "admin", 
      "population": "29961", 
      "population_proper": "29961"
    }, 
    {
      "city": "Kamphaeng Phet", 
      "lat": "16.4811", 
      "lng": "99.5222", 
      "country": "Thailand", 
      "iso2": "TH", 
      "admin_name": "Kamphaeng Phet", 
      "capital": "admin", 
      "population": "29178", 
      "population_proper": "29178"
    }, 
    {
      "city": "Ban Phai", 
      "lat": "16.0730", 
      "lng": "102.7362", 
      "country": "Thailand", 
      "iso2": "TH", 
      "admin_name": "Khon Kaen", 
      "capital": "minor", 
      "population": "28913", 
      "population_proper": "28913"
    }, 
    {
      "city": "Buri Ram", 
      "lat": "14.9942", 
      "lng": "103.1022", 
      "country": "Thailand", 
      "iso2": "TH", 
      "admin_name": "Buriram", 
      "capital": "admin", 
      "population": "28613", 
      "population_proper": "28613"
    }, 
    {
      "city": "Samut Songkhram", 
      "lat": "13.4097", 
      "lng": "100.0017", 
      "country": "Thailand", 
      "iso2": "TH", 
      "admin_name": "Samut Songkhram", 
      "capital": "admin", 
      "population": "28493", 
      "population_proper": "28493"
    }, 
    {
      "city": "Tha Yang", 
      "lat": "12.9658", 
      "lng": "99.8924", 
      "country": "Thailand", 
      "iso2": "TH", 
      "admin_name": "Phetchaburi", 
      "capital": "minor", 
      "population": "28437", 
      "population_proper": "28437"
    }, 
    {
      "city": "Ban Bang Khu Wat", 
      "lat": "13.9576", 
      "lng": "100.4902", 
      "country": "Thailand", 
      "iso2": "TH", 
      "admin_name": "Pathum Thani", 
      "capital": "", 
      "population": "28349", 
      "population_proper": "28349"
    }, 
    {
      "city": "Warin Chamrap", 
      "lat": "15.2008", 
      "lng": "104.8612", 
      "country": "Thailand", 
      "iso2": "TH", 
      "admin_name": "Ubon Ratchathani", 
      "capital": "minor", 
      "population": "28154", 
      "population_proper": "28154"
    }, 
    {
      "city": "Ban Phonla Krang", 
      "lat": "14.9192", 
      "lng": "102.1095", 
      "country": "Thailand", 
      "iso2": "TH", 
      "admin_name": "Nakhon Ratchasima", 
      "capital": "", 
      "population": "26804", 
      "population_proper": "26804"
    }, 
    {
      "city": "Betong", 
      "lat": "5.7731", 
      "lng": "101.0725", 
      "country": "Thailand", 
      "iso2": "TH", 
      "admin_name": "Yala", 
      "capital": "minor", 
      "population": "26640", 
      "population_proper": "26640"
    }, 
    {
      "city": "Nakhon Phanom", 
      "lat": "17.4069", 
      "lng": "104.7808", 
      "country": "Thailand", 
      "iso2": "TH", 
      "admin_name": "Nakhon Phanom", 
      "capital": "admin", 
      "population": "26437", 
      "population_proper": "26437"
    }, 
    {
      "city": "Suphan Buri", 
      "lat": "14.4675", 
      "lng": "100.1169", 
      "country": "Thailand", 
      "iso2": "TH", 
      "admin_name": "Suphan Buri", 
      "capital": "admin", 
      "population": "26164", 
      "population_proper": "26164"
    }, 
    {
      "city": "Kathu", 
      "lat": "7.9112", 
      "lng": "98.3475", 
      "country": "Thailand", 
      "iso2": "TH", 
      "admin_name": "Phuket", 
      "capital": "minor", 
      "population": "26078", 
      "population_proper": "26078"
    }, 
    {
      "city": "Amnat Charoen", 
      "lat": "15.8758", 
      "lng": "104.6223", 
      "country": "Thailand", 
      "iso2": "TH", 
      "admin_name": "Amnat Charoen", 
      "capital": "admin", 
      "population": "25858", 
      "population_proper": "25858"
    }, 
    {
      "city": "Ban Bang Phun", 
      "lat": "13.9968", 
      "lng": "100.5891", 
      "country": "Thailand", 
      "iso2": "TH", 
      "admin_name": "Pathum Thani", 
      "capital": "", 
      "population": "24625", 
      "population_proper": "24625"
    }, 
    {
      "city": "Takhli", 
      "lat": "15.2667", 
      "lng": "100.3500", 
      "country": "Thailand", 
      "iso2": "TH", 
      "admin_name": "Nakhon Sawan", 
      "capital": "minor", 
      "population": "24563", 
      "population_proper": "24563"
    }, 
    {
      "city": "Lop Buri", 
      "lat": "14.8000", 
      "lng": "100.6269", 
      "country": "Thailand", 
      "iso2": "TH", 
      "admin_name": "Lop Buri", 
      "capital": "admin", 
      "population": "24166", 
      "population_proper": "24166"
    }, 
    {
      "city": "Chanthaburi", 
      "lat": "12.6086", 
      "lng": "102.1039", 
      "country": "Thailand", 
      "iso2": "TH", 
      "admin_name": "Chanthaburi", 
      "capital": "admin", 
      "population": "23835", 
      "population_proper": "23835"
    }, 
    {
      "city": "Bang Sao Thong", 
      "lat": "13.5812", 
      "lng": "100.7957", 
      "country": "Thailand", 
      "iso2": "TH", 
      "admin_name": "Samut Prakan", 
      "capital": "minor", 
      "population": "23630", 
      "population_proper": "23630"
    }, 
    {
      "city": "Satun", 
      "lat": "6.6147", 
      "lng": "100.0681", 
      "country": "Thailand", 
      "iso2": "TH", 
      "admin_name": "Satun", 
      "capital": "admin", 
      "population": "23612", 
      "population_proper": "23612"
    }, 
    {
      "city": "Ban Phru", 
      "lat": "6.9480", 
      "lng": "100.4794", 
      "country": "Thailand", 
      "iso2": "TH", 
      "admin_name": "Songkhla", 
      "capital": "", 
      "population": "23518", 
      "population_proper": "23518"
    }, 
    {
      "city": "Sattahip", 
      "lat": "12.6636", 
      "lng": "100.9036", 
      "country": "Thailand", 
      "iso2": "TH", 
      "admin_name": "Chon Buri", 
      "capital": "minor", 
      "population": "23418", 
      "population_proper": "23418"
    }, 
    {
      "city": "Si Racha", 
      "lat": "13.1744", 
      "lng": "100.9306", 
      "country": "Thailand", 
      "iso2": "TH", 
      "admin_name": "Chon Buri", 
      "capital": "minor", 
      "population": "23400", 
      "population_proper": "23400"
    }, 
    {
      "city": "Sai Mai", 
      "lat": "13.8882", 
      "lng": "100.4620", 
      "country": "Thailand", 
      "iso2": "TH", 
      "admin_name": "Krung Thep Maha Nakhon", 
      "capital": "minor", 
      "population": "23316", 
      "population_proper": "23316"
    }, 
    {
      "city": "Phetchaburi", 
      "lat": "13.1119", 
      "lng": "99.9458", 
      "country": "Thailand", 
      "iso2": "TH", 
      "admin_name": "Phetchaburi", 
      "capital": "admin", 
      "population": "23235", 
      "population_proper": "23235"
    }, 
    {
      "city": "Ban Bang Rin", 
      "lat": "9.9532", 
      "lng": "98.6344", 
      "country": "Thailand", 
      "iso2": "TH", 
      "admin_name": "Ranong", 
      "capital": "", 
      "population": "23144", 
      "population_proper": "23144"
    }, 
    {
      "city": "Ban Bang Krang", 
      "lat": "13.8442", 
      "lng": "100.4612", 
      "country": "Thailand", 
      "iso2": "TH", 
      "admin_name": "Nonthaburi", 
      "capital": "", 
      "population": "23010", 
      "population_proper": "23010"
    }, 
    {
      "city": "Wichian Buri", 
      "lat": "15.6565", 
      "lng": "101.1072", 
      "country": "Thailand", 
      "iso2": "TH", 
      "admin_name": "Phetchabun", 
      "capital": "minor", 
      "population": "22995", 
      "population_proper": "22995"
    }, 
    {
      "city": "Loei", 
      "lat": "17.4853", 
      "lng": "101.7307", 
      "country": "Thailand", 
      "iso2": "TH", 
      "admin_name": "Loei", 
      "capital": "admin", 
      "population": "22339", 
      "population_proper": "22339"
    }, 
    {
      "city": "Phichit", 
      "lat": "16.4431", 
      "lng": "100.3467", 
      "country": "Thailand", 
      "iso2": "TH", 
      "admin_name": "Phichit", 
      "capital": "admin", 
      "population": "22299", 
      "population_proper": "22299"
    }, 
    {
      "city": "Ban Piang Luang", 
      "lat": "19.6493", 
      "lng": "98.6352", 
      "country": "Thailand", 
      "iso2": "TH", 
      "admin_name": "Chiang Mai", 
      "capital": "", 
      "population": "22215", 
      "population_proper": "22215"
    }, 
    {
      "city": "Phetchabun", 
      "lat": "16.4169", 
      "lng": "101.1533", 
      "country": "Thailand", 
      "iso2": "TH", 
      "admin_name": "Phetchabun", 
      "capital": "admin", 
      "population": "22121", 
      "population_proper": "22121"
    }, 
    {
      "city": "Krathum Baen", 
      "lat": "13.6519", 
      "lng": "100.2572", 
      "country": "Thailand", 
      "iso2": "TH", 
      "admin_name": "Samut Sakhon", 
      "capital": "minor", 
      "population": "21904", 
      "population_proper": "21904"
    }, 
    {
      "city": "Nong Bua Lamphu", 
      "lat": "17.2042", 
      "lng": "102.4444", 
      "country": "Thailand", 
      "iso2": "TH", 
      "admin_name": "Nong Bua Lamphu", 
      "capital": "admin", 
      "population": "21528", 
      "population_proper": "21528"
    }, 
    {
      "city": "Nang Rong", 
      "lat": "14.6363", 
      "lng": "102.7746", 
      "country": "Thailand", 
      "iso2": "TH", 
      "admin_name": "Buriram", 
      "capital": "minor", 
      "population": "21493", 
      "population_proper": "21493"
    }, 
    {
      "city": "Wang Nam Yen", 
      "lat": "13.5004", 
      "lng": "102.1806", 
      "country": "Thailand", 
      "iso2": "TH", 
      "admin_name": "Sa Kaeo", 
      "capital": "minor", 
      "population": "21301", 
      "population_proper": "21301"
    }, 
    {
      "city": "Sadao", 
      "lat": "6.6386", 
      "lng": "100.4240", 
      "country": "Thailand", 
      "iso2": "TH", 
      "admin_name": "Songkhla", 
      "capital": "minor", 
      "population": "21086", 
      "population_proper": "21086"
    }, 
    {
      "city": "Mae Sai", 
      "lat": "20.4266", 
      "lng": "99.8841", 
      "country": "Thailand", 
      "iso2": "TH", 
      "admin_name": "Chiang Rai", 
      "capital": "minor", 
      "population": "20699", 
      "population_proper": "20699"
    }, 
    {
      "city": "Na Klang", 
      "lat": "17.3043", 
      "lng": "102.1964", 
      "country": "Thailand", 
      "iso2": "TH", 
      "admin_name": "Nong Bua Lamphu", 
      "capital": "minor", 
      "population": "20609", 
      "population_proper": "20609"
    }, 
    {
      "city": "Nan", 
      "lat": "18.7893", 
      "lng": "100.7766", 
      "country": "Thailand", 
      "iso2": "TH", 
      "admin_name": "Nan", 
      "capital": "admin", 
      "population": "20595", 
      "population_proper": "20595"
    }, 
    {
      "city": "Pak Phanang", 
      "lat": "8.3538", 
      "lng": "100.2023", 
      "country": "Thailand", 
      "iso2": "TH", 
      "admin_name": "Nakhon Si Thammarat", 
      "capital": "minor", 
      "population": "20425", 
      "population_proper": "20425"
    }, 
    {
      "city": "Yasothon", 
      "lat": "15.7883", 
      "lng": "104.1506", 
      "country": "Thailand", 
      "iso2": "TH", 
      "admin_name": "Yasothon", 
      "capital": "admin", 
      "population": "20414", 
      "population_proper": "20414"
    }, 
    {
      "city": "Ban Tha Pha", 
      "lat": "13.8437", 
      "lng": "99.8681", 
      "country": "Thailand", 
      "iso2": "TH", 
      "admin_name": "Ratchaburi", 
      "capital": "", 
      "population": "20211", 
      "population_proper": "20211"
    }, 
    {
      "city": "Ban Tha Kham", 
      "lat": "9.1059", 
      "lng": "99.2326", 
      "country": "Thailand", 
      "iso2": "TH", 
      "admin_name": "Surat Thani", 
      "capital": "", 
      "population": "19939", 
      "population_proper": "19939"
    }, 
    {
      "city": "Ban Na San", 
      "lat": "8.7997", 
      "lng": "99.3635", 
      "country": "Thailand", 
      "iso2": "TH", 
      "admin_name": "Surat Thani", 
      "capital": "minor", 
      "population": "19801", 
      "population_proper": "19801"
    }, 
    {
      "city": "Kantharalak", 
      "lat": "14.6536", 
      "lng": "104.6278", 
      "country": "Thailand", 
      "iso2": "TH", 
      "admin_name": "Sisaket", 
      "capital": "minor", 
      "population": "19392", 
      "population_proper": "19392"
    }, 
    {
      "city": "Ban Bueng", 
      "lat": "13.3140", 
      "lng": "101.1114", 
      "country": "Thailand", 
      "iso2": "TH", 
      "admin_name": "Chon Buri", 
      "capital": "minor", 
      "population": "19346", 
      "population_proper": "19346"
    }, 
    {
      "city": "Ban Na Yang", 
      "lat": "12.8339", 
      "lng": "99.9346", 
      "country": "Thailand", 
      "iso2": "TH", 
      "admin_name": "Phetchaburi", 
      "capital": "", 
      "population": "18961", 
      "population_proper": "18961"
    }, 
    {
      "city": "Tak Bai", 
      "lat": "6.2592", 
      "lng": "102.0530", 
      "country": "Thailand", 
      "iso2": "TH", 
      "admin_name": "Narathiwat", 
      "capital": "minor", 
      "population": "18943", 
      "population_proper": "18943"
    }, 
    {
      "city": "Klaeng", 
      "lat": "12.7778", 
      "lng": "101.6483", 
      "country": "Thailand", 
      "iso2": "TH", 
      "admin_name": "Rayong", 
      "capital": "minor", 
      "population": "18797", 
      "population_proper": "18797"
    }, 
    {
      "city": "Ban Mae Hia Nai", 
      "lat": "18.7433", 
      "lng": "98.9640", 
      "country": "Thailand", 
      "iso2": "TH", 
      "admin_name": "Chiang Mai", 
      "capital": "", 
      "population": "18564", 
      "population_proper": "18564"
    }, 
    {
      "city": "Tha Bo", 
      "lat": "17.8494", 
      "lng": "102.5858", 
      "country": "Thailand", 
      "iso2": "TH", 
      "admin_name": "Nong Khai", 
      "capital": "minor", 
      "population": "18320", 
      "population_proper": "18320"
    }, 
    {
      "city": "Ban Thum", 
      "lat": "16.4523", 
      "lng": "102.7225", 
      "country": "Thailand", 
      "iso2": "TH", 
      "admin_name": "Khon Kaen", 
      "capital": "", 
      "population": "18302", 
      "population_proper": "18302"
    }, 
    {
      "city": "Ban Mai", 
      "lat": "14.9658", 
      "lng": "102.0233", 
      "country": "Thailand", 
      "iso2": "TH", 
      "admin_name": "Nakhon Ratchasima", 
      "capital": "", 
      "population": "18255", 
      "population_proper": "18255"
    }, 
    {
      "city": "Sikhio", 
      "lat": "14.8764", 
      "lng": "101.7202", 
      "country": "Thailand", 
      "iso2": "TH", 
      "admin_name": "Nakhon Ratchasima", 
      "capital": "minor", 
      "population": "18209", 
      "population_proper": "18209"
    }, 
    {
      "city": "Sa Kaeo", 
      "lat": "13.8206", 
      "lng": "102.0589", 
      "country": "Thailand", 
      "iso2": "TH", 
      "admin_name": "Sa Kaeo", 
      "capital": "admin", 
      "population": "17864", 
      "population_proper": "17864"
    }, 
    {
      "city": "San Kamphaeng", 
      "lat": "18.7500", 
      "lng": "99.1167", 
      "country": "Thailand", 
      "iso2": "TH", 
      "admin_name": "Chiang Mai", 
      "capital": "minor", 
      "population": "17857", 
      "population_proper": "17857"
    }, 
    {
      "city": "Sing Buri", 
      "lat": "14.8911", 
      "lng": "100.4031", 
      "country": "Thailand", 
      "iso2": "TH", 
      "admin_name": "Sing Buri", 
      "capital": "admin", 
      "population": "17843", 
      "population_proper": "17843"
    }, 
    {
      "city": "Prachin Buri", 
      "lat": "14.0567", 
      "lng": "101.3739", 
      "country": "Thailand", 
      "iso2": "TH", 
      "admin_name": "Prachin Buri", 
      "capital": "admin", 
      "population": "17768", 
      "population_proper": "17768"
    }, 
    {
      "city": "Sam Phran", 
      "lat": "13.7270", 
      "lng": "100.2153", 
      "country": "Thailand", 
      "iso2": "TH", 
      "admin_name": "Nakhon Pathom", 
      "capital": "minor", 
      "population": "17611", 
      "population_proper": "17611"
    }, 
    {
      "city": "Ban Song", 
      "lat": "8.6603", 
      "lng": "99.3768", 
      "country": "Thailand", 
      "iso2": "TH", 
      "admin_name": "Surat Thani", 
      "capital": "", 
      "population": "17579", 
      "population_proper": "17579"
    }, 
    {
      "city": "Tak", 
      "lat": "16.8711", 
      "lng": "99.1250", 
      "country": "Thailand", 
      "iso2": "TH", 
      "admin_name": "Tak", 
      "capital": "admin", 
      "population": "17565", 
      "population_proper": "17565"
    }, 
    {
      "city": "Phayao", 
      "lat": "19.1652", 
      "lng": "99.9036", 
      "country": "Thailand", 
      "iso2": "TH", 
      "admin_name": "Phayao", 
      "capital": "admin", 
      "population": "17467", 
      "population_proper": "17467"
    }, 
    {
      "city": "Ban Pong", 
      "lat": "13.8174", 
      "lng": "99.8830", 
      "country": "Thailand", 
      "iso2": "TH", 
      "admin_name": "Ratchaburi", 
      "capital": "minor", 
      "population": "17298", 
      "population_proper": "17298"
    }, 
    {
      "city": "Rattaphum", 
      "lat": "7.1412", 
      "lng": "100.2905", 
      "country": "Thailand", 
      "iso2": "TH", 
      "admin_name": "Songkhla", 
      "capital": "minor", 
      "population": "17257", 
      "population_proper": "17257"
    }, 
    {
      "city": "Sawankhalok", 
      "lat": "17.3099", 
      "lng": "99.8263", 
      "country": "Thailand", 
      "iso2": "TH", 
      "admin_name": "Sukhothai", 
      "capital": "minor", 
      "population": "17148", 
      "population_proper": "17148"
    }, 
    {
      "city": "Ban Phe", 
      "lat": "12.6287", 
      "lng": "101.4399", 
      "country": "Thailand", 
      "iso2": "TH", 
      "admin_name": "Rayong", 
      "capital": "", 
      "population": "17116", 
      "population_proper": "17116"
    }, 
    {
      "city": "Ban Rawai", 
      "lat": "7.7707", 
      "lng": "98.3185", 
      "country": "Thailand", 
      "iso2": "TH", 
      "admin_name": "Phuket", 
      "capital": "", 
      "population": "16988", 
      "population_proper": "16988"
    }, 
    {
      "city": "Pran Buri", 
      "lat": "12.3939", 
      "lng": "99.9159", 
      "country": "Thailand", 
      "iso2": "TH", 
      "admin_name": "Prachuap Khiri Khan", 
      "capital": "minor", 
      "population": "16851", 
      "population_proper": "16851"
    }, 
    {
      "city": "Ban Thung Tam Sao", 
      "lat": "6.9581", 
      "lng": "100.3207", 
      "country": "Thailand", 
      "iso2": "TH", 
      "admin_name": "Songkhla", 
      "capital": "", 
      "population": "16800", 
      "population_proper": "16800"
    }, 
    {
      "city": "Phrae", 
      "lat": "18.1436", 
      "lng": "100.1417", 
      "country": "Thailand", 
      "iso2": "TH", 
      "admin_name": "Phrae", 
      "capital": "admin", 
      "population": "16668", 
      "population_proper": "16668"
    }, 
    {
      "city": "Ban Cho Ho", 
      "lat": "15.0311", 
      "lng": "102.1381", 
      "country": "Thailand", 
      "iso2": "TH", 
      "admin_name": "Nakhon Ratchasima", 
      "capital": "", 
      "population": "16527", 
      "population_proper": "16527"
    }, 
    {
      "city": "Ban Lam Narai", 
      "lat": "15.2054", 
      "lng": "101.1356", 
      "country": "Thailand", 
      "iso2": "TH", 
      "admin_name": "Lop Buri", 
      "capital": "", 
      "population": "16470", 
      "population_proper": "16470"
    }, 
    {
      "city": "Aranyaprathet", 
      "lat": "13.6928", 
      "lng": "102.5017", 
      "country": "Thailand", 
      "iso2": "TH", 
      "admin_name": "Sa Kaeo", 
      "capital": "minor", 
      "population": "16211", 
      "population_proper": "16211"
    }, 
    {
      "city": "Nakhon Nayok", 
      "lat": "14.2031", 
      "lng": "101.2150", 
      "country": "Thailand", 
      "iso2": "TH", 
      "admin_name": "Nakhon Nayok", 
      "capital": "admin", 
      "population": "16195", 
      "population_proper": "16195"
    }, 
    {
      "city": "Bang Phae", 
      "lat": "13.6983", 
      "lng": "99.9068", 
      "country": "Thailand", 
      "iso2": "TH", 
      "admin_name": "Ratchaburi", 
      "capital": "minor", 
      "population": "16130", 
      "population_proper": "16130"
    }, 
    {
      "city": "Ranong", 
      "lat": "9.9619", 
      "lng": "98.6389", 
      "country": "Thailand", 
      "iso2": "TH", 
      "admin_name": "Ranong", 
      "capital": "admin", 
      "population": "16125", 
      "population_proper": "16125"
    }, 
    {
      "city": "Chai Prakan", 
      "lat": "19.7322", 
      "lng": "99.1403", 
      "country": "Thailand", 
      "iso2": "TH", 
      "admin_name": "Chiang Mai", 
      "capital": "minor", 
      "population": "16090", 
      "population_proper": "16090"
    }, 
    {
      "city": "Ban Dung", 
      "lat": "17.7040", 
      "lng": "103.2623", 
      "country": "Thailand", 
      "iso2": "TH", 
      "admin_name": "Udon Thani", 
      "capital": "minor", 
      "population": "15913", 
      "population_proper": "15913"
    }, 
    {
      "city": "Lam Luk Ka", 
      "lat": "13.9297", 
      "lng": "100.7375", 
      "country": "Thailand", 
      "iso2": "TH", 
      "admin_name": "Pathum Thani", 
      "capital": "minor", 
      "population": "15881", 
      "population_proper": "15881"
    }, 
    {
      "city": "Si Satchanalai", 
      "lat": "17.4155", 
      "lng": "99.8152", 
      "country": "Thailand", 
      "iso2": "TH", 
      "admin_name": "Sukhothai", 
      "capital": "minor", 
      "population": "15691", 
      "population_proper": "15691"
    }, 
    {
      "city": "Sukhothai", 
      "lat": "17.0142", 
      "lng": "99.8219", 
      "country": "Thailand", 
      "iso2": "TH", 
      "admin_name": "Sukhothai", 
      "capital": "admin", 
      "population": "15618", 
      "population_proper": "15618"
    }, 
    {
      "city": "Ban Duea", 
      "lat": "16.1253", 
      "lng": "101.8967", 
      "country": "Thailand", 
      "iso2": "TH", 
      "admin_name": "Chaiyaphum", 
      "capital": "", 
      "population": "15524", 
      "population_proper": "15524"
    }, 
    {
      "city": "Ban Na Kham", 
      "lat": "14.0681", 
      "lng": "101.8125", 
      "country": "Thailand", 
      "iso2": "TH", 
      "admin_name": "Prachin Buri", 
      "capital": "", 
      "population": "15465", 
      "population_proper": "15465"
    }, 
    {
      "city": "Uthai Thani", 
      "lat": "15.3800", 
      "lng": "100.0250", 
      "country": "Thailand", 
      "iso2": "TH", 
      "admin_name": "Uthai Thani", 
      "capital": "admin", 
      "population": "15434", 
      "population_proper": "15434"
    }, 
    {
      "city": "Khao Yoi", 
      "lat": "13.2403", 
      "lng": "99.8254", 
      "country": "Thailand", 
      "iso2": "TH", 
      "admin_name": "Phetchaburi", 
      "capital": "minor", 
      "population": "15416", 
      "population_proper": "15416"
    }, 
    {
      "city": "Thoen", 
      "lat": "17.6100", 
      "lng": "99.2234", 
      "country": "Thailand", 
      "iso2": "TH", 
      "admin_name": "Lampang", 
      "capital": "minor", 
      "population": "15360", 
      "population_proper": "15360"
    }, 
    {
      "city": "Taphan Hin", 
      "lat": "16.2108", 
      "lng": "100.4188", 
      "country": "Thailand", 
      "iso2": "TH", 
      "admin_name": "Phichit", 
      "capital": "minor", 
      "population": "15329", 
      "population_proper": "15329"
    }, 
    {
      "city": "Bang Racham", 
      "lat": "14.8864", 
      "lng": "100.3235", 
      "country": "Thailand", 
      "iso2": "TH", 
      "admin_name": "Sing Buri", 
      "capital": "minor", 
      "population": "14577", 
      "population_proper": "14577"
    }, 
    {
      "city": "Ban Kaeng", 
      "lat": "16.4119", 
      "lng": "102.0402", 
      "country": "Thailand", 
      "iso2": "TH", 
      "admin_name": "Chaiyaphum", 
      "capital": "", 
      "population": "14536", 
      "population_proper": "14536"
    }, 
    {
      "city": "Sai Buri", 
      "lat": "6.7012", 
      "lng": "101.6181", 
      "country": "Thailand", 
      "iso2": "TH", 
      "admin_name": "Pattani", 
      "capital": "minor", 
      "population": "14522", 
      "population_proper": "14522"
    }, 
    {
      "city": "Pak Thong Chai", 
      "lat": "14.7302", 
      "lng": "102.0263", 
      "country": "Thailand", 
      "iso2": "TH", 
      "admin_name": "Nakhon Ratchasima", 
      "capital": "minor", 
      "population": "14272", 
      "population_proper": "14272"
    }, 
    {
      "city": "Det Udom", 
      "lat": "14.9060", 
      "lng": "105.0784", 
      "country": "Thailand", 
      "iso2": "TH", 
      "admin_name": "Ubon Ratchathani", 
      "capital": "minor", 
      "population": "14264", 
      "population_proper": "14264"
    }, 
    {
      "city": "Ban Mae Kaluang", 
      "lat": "19.0778", 
      "lng": "99.9270", 
      "country": "Thailand", 
      "iso2": "TH", 
      "admin_name": "Phayao", 
      "capital": "", 
      "population": "14215", 
      "population_proper": "14215"
    }, 
    {
      "city": "Bua Yai", 
      "lat": "15.5858", 
      "lng": "102.4337", 
      "country": "Thailand", 
      "iso2": "TH", 
      "admin_name": "Nakhon Ratchasima", 
      "capital": "minor", 
      "population": "14168", 
      "population_proper": "14168"
    }, 
    {
      "city": "Pathum Thani", 
      "lat": "13.9841", 
      "lng": "100.5512", 
      "country": "Thailand", 
      "iso2": "TH", 
      "admin_name": "Pathum Thani", 
      "capital": "admin", 
      "population": "13987", 
      "population_proper": "13987"
    }, 
    {
      "city": "Ban Bang Muang", 
      "lat": "13.8273", 
      "lng": "100.3859", 
      "country": "Thailand", 
      "iso2": "TH", 
      "admin_name": "Nonthaburi", 
      "capital": "", 
      "population": "13786", 
      "population_proper": "13786"
    }, 
    {
      "city": "Ban Tha Luang Lang", 
      "lat": "12.6376", 
      "lng": "102.0884", 
      "country": "Thailand", 
      "iso2": "TH", 
      "admin_name": "Chanthaburi", 
      "capital": "", 
      "population": "13785", 
      "population_proper": "13785"
    }, 
    {
      "city": "Ban Bang Non", 
      "lat": "9.9923", 
      "lng": "98.6507", 
      "country": "Thailand", 
      "iso2": "TH", 
      "admin_name": "Ranong", 
      "capital": "", 
      "population": "13773", 
      "population_proper": "13773"
    }, 
    {
      "city": "Dok Kham Tai", 
      "lat": "19.1612", 
      "lng": "99.9946", 
      "country": "Thailand", 
      "iso2": "TH", 
      "admin_name": "Phayao", 
      "capital": "minor", 
      "population": "13450", 
      "population_proper": "13450"
    }, 
    {
      "city": "Ban Chorakhe Samphan", 
      "lat": "14.3258", 
      "lng": "99.8623", 
      "country": "Thailand", 
      "iso2": "TH", 
      "admin_name": "Suphan Buri", 
      "capital": "", 
      "population": "13350", 
      "population_proper": "13350"
    }, 
    {
      "city": "Ang Thong", 
      "lat": "14.5926", 
      "lng": "100.4574", 
      "country": "Thailand", 
      "iso2": "TH", 
      "admin_name": "Ang Thong", 
      "capital": "admin", 
      "population": "13277", 
      "population_proper": "13277"
    }, 
    {
      "city": "Phra Samut Chedi", 
      "lat": "13.5934", 
      "lng": "100.5801", 
      "country": "Thailand", 
      "iso2": "TH", 
      "admin_name": "Samut Prakan", 
      "capital": "minor", 
      "population": "13082", 
      "population_proper": "13082"
    }, 
    {
      "city": "Ban Tat", 
      "lat": "17.2791", 
      "lng": "102.8022", 
      "country": "Thailand", 
      "iso2": "TH", 
      "admin_name": "Udon Thani", 
      "capital": "", 
      "population": "12959", 
      "population_proper": "12959"
    }, 
    {
      "city": "Song Phi Nong", 
      "lat": "14.2306", 
      "lng": "100.0389", 
      "country": "Thailand", 
      "iso2": "TH", 
      "admin_name": "Suphan Buri", 
      "capital": "minor", 
      "population": "12926", 
      "population_proper": "12926"
    }, 
    {
      "city": "Huai Yot", 
      "lat": "7.7892", 
      "lng": "99.6329", 
      "country": "Thailand", 
      "iso2": "TH", 
      "admin_name": "Trang", 
      "capital": "minor", 
      "population": "12902", 
      "population_proper": "12902"
    }, 
    {
      "city": "Nong Khae", 
      "lat": "14.3406", 
      "lng": "100.8673", 
      "country": "Thailand", 
      "iso2": "TH", 
      "admin_name": "Sara Buri", 
      "capital": "minor", 
      "population": "12866", 
      "population_proper": "12866"
    }, 
    {
      "city": "Kaeng Khoi", 
      "lat": "14.5864", 
      "lng": "100.9967", 
      "country": "Thailand", 
      "iso2": "TH", 
      "admin_name": "Sara Buri", 
      "capital": "minor", 
      "population": "12752", 
      "population_proper": "12752"
    }, 
    {
      "city": "Chaiyo", 
      "lat": "14.6666", 
      "lng": "100.4702", 
      "country": "Thailand", 
      "iso2": "TH", 
      "admin_name": "Ang Thong", 
      "capital": "minor", 
      "population": "12710", 
      "population_proper": "12710"
    }, 
    {
      "city": "Ban Tom Klang", 
      "lat": "19.1961", 
      "lng": "99.8378", 
      "country": "Thailand", 
      "iso2": "TH", 
      "admin_name": "Phayao", 
      "capital": "", 
      "population": "12709", 
      "population_proper": "12709"
    }, 
    {
      "city": "Lamphun", 
      "lat": "18.5865", 
      "lng": "99.0121", 
      "country": "Thailand", 
      "iso2": "TH", 
      "admin_name": "Lamphun", 
      "capital": "admin", 
      "population": "12595", 
      "population_proper": "12595"
    }, 
    {
      "city": "Chok Chai", 
      "lat": "14.7284", 
      "lng": "102.1652", 
      "country": "Thailand", 
      "iso2": "TH", 
      "admin_name": "Nakhon Ratchasima", 
      "capital": "minor", 
      "population": "12568", 
      "population_proper": "12568"
    }, 
    {
      "city": "Rong Kwang", 
      "lat": "18.3392", 
      "lng": "100.3172", 
      "country": "Thailand", 
      "iso2": "TH", 
      "admin_name": "Phrae", 
      "capital": "minor", 
      "population": "12553", 
      "population_proper": "12553"
    }, 
    {
      "city": "Chai Nat", 
      "lat": "15.1872", 
      "lng": "100.1283", 
      "country": "Thailand", 
      "iso2": "TH", 
      "admin_name": "Chai Nat", 
      "capital": "admin", 
      "population": "12541", 
      "population_proper": "12541"
    }, 
    {
      "city": "Ban Laem", 
      "lat": "13.2168", 
      "lng": "99.9767", 
      "country": "Thailand", 
      "iso2": "TH", 
      "admin_name": "Phetchaburi", 
      "capital": "minor", 
      "population": "12541", 
      "population_proper": "12541"
    }, 
    {
      "city": "Kantang", 
      "lat": "7.4067", 
      "lng": "99.5150", 
      "country": "Thailand", 
      "iso2": "TH", 
      "admin_name": "Trang", 
      "capital": "minor", 
      "population": "12533", 
      "population_proper": "12533"
    }, 
    {
      "city": "Lom Sak", 
      "lat": "16.7775", 
      "lng": "101.2468", 
      "country": "Thailand", 
      "iso2": "TH", 
      "admin_name": "Phetchabun", 
      "capital": "minor", 
      "population": "12290", 
      "population_proper": "12290"
    }, 
    {
      "city": "Ban Bang Sai", 
      "lat": "13.3847", 
      "lng": "100.9856", 
      "country": "Thailand", 
      "iso2": "TH", 
      "admin_name": "Chon Buri", 
      "capital": "", 
      "population": "12269", 
      "population_proper": "12269"
    }, 
    {
      "city": "Na Wa", 
      "lat": "17.4897", 
      "lng": "104.1006", 
      "country": "Thailand", 
      "iso2": "TH", 
      "admin_name": "Nakhon Phanom", 
      "capital": "minor", 
      "population": "12160", 
      "population_proper": "12160"
    }, 
    {
      "city": "Ban Bo Luang", 
      "lat": "18.1476", 
      "lng": "98.3489", 
      "country": "Thailand", 
      "iso2": "TH", 
      "admin_name": "Chiang Mai", 
      "capital": "", 
      "population": "12143", 
      "population_proper": "12143"
    }, 
    {
      "city": "Ban Muang Ngam", 
      "lat": "7.3536", 
      "lng": "100.4898", 
      "country": "Thailand", 
      "iso2": "TH", 
      "admin_name": "Songkhla", 
      "capital": "", 
      "population": "12084", 
      "population_proper": "12084"
    }, 
    {
      "city": "Wang Saphung", 
      "lat": "17.2995", 
      "lng": "101.7624", 
      "country": "Thailand", 
      "iso2": "TH", 
      "admin_name": "Loei", 
      "capital": "minor", 
      "population": "11992", 
      "population_proper": "11992"
    }, 
    {
      "city": "Nong Bua", 
      "lat": "15.8647", 
      "lng": "100.5858", 
      "country": "Thailand", 
      "iso2": "TH", 
      "admin_name": "Nakhon Sawan", 
      "capital": "minor", 
      "population": "11951", 
      "population_proper": "11951"
    }, 
    {
      "city": "Don Sak", 
      "lat": "9.3169", 
      "lng": "99.6944", 
      "country": "Thailand", 
      "iso2": "TH", 
      "admin_name": "Surat Thani", 
      "capital": "minor", 
      "population": "11934", 
      "population_proper": "11934"
    }, 
    {
      "city": "Kuchinarai", 
      "lat": "16.5318", 
      "lng": "104.0440", 
      "country": "Thailand", 
      "iso2": "TH", 
      "admin_name": "Kalasin", 
      "capital": "minor", 
      "population": "11753", 
      "population_proper": "11753"
    }, 
    {
      "city": "Ban Phan Don", 
      "lat": "17.1290", 
      "lng": "102.9618", 
      "country": "Thailand", 
      "iso2": "TH", 
      "admin_name": "Udon Thani", 
      "capital": "", 
      "population": "11739", 
      "population_proper": "11739"
    }, 
    {
      "city": "Phon", 
      "lat": "15.8160", 
      "lng": "102.5998", 
      "country": "Thailand", 
      "iso2": "TH", 
      "admin_name": "Khon Kaen", 
      "capital": "minor", 
      "population": "11593", 
      "population_proper": "11593"
    }, 
    {
      "city": "Ban Wiang Phan", 
      "lat": "20.4034", 
      "lng": "99.8856", 
      "country": "Thailand", 
      "iso2": "TH", 
      "admin_name": "Chiang Rai", 
      "capital": "", 
      "population": "11569", 
      "population_proper": "11569"
    }, 
    {
      "city": "Den Chai", 
      "lat": "17.9835", 
      "lng": "100.0519", 
      "country": "Thailand", 
      "iso2": "TH", 
      "admin_name": "Phrae", 
      "capital": "minor", 
      "population": "11542", 
      "population_proper": "11542"
    }, 
    {
      "city": "Satuek", 
      "lat": "15.3008", 
      "lng": "103.3013", 
      "country": "Thailand", 
      "iso2": "TH", 
      "admin_name": "Buriram", 
      "capital": "minor", 
      "population": "11444", 
      "population_proper": "11444"
    }, 
    {
      "city": "Ban Bang Lamung", 
      "lat": "13.0470", 
      "lng": "100.9289", 
      "country": "Thailand", 
      "iso2": "TH", 
      "admin_name": "Chon Buri", 
      "capital": "", 
      "population": "11324", 
      "population_proper": "11324"
    }, 
    {
      "city": "Salaya", 
      "lat": "13.8023", 
      "lng": "100.3208", 
      "country": "Thailand", 
      "iso2": "TH", 
      "admin_name": "Nakhon Pathom", 
      "capital": "minor", 
      "population": "11318", 
      "population_proper": "11318"
    }, 
    {
      "city": "Lang Suan", 
      "lat": "9.9519", 
      "lng": "99.0813", 
      "country": "Thailand", 
      "iso2": "TH", 
      "admin_name": "Chumphon", 
      "capital": "minor", 
      "population": "11250", 
      "population_proper": "11250"
    }, 
    {
      "city": "Tha Chang", 
      "lat": "9.2674", 
      "lng": "99.1922", 
      "country": "Thailand", 
      "iso2": "TH", 
      "admin_name": "Surat Thani", 
      "capital": "minor", 
      "population": "11248", 
      "population_proper": "11248"
    }, 
    {
      "city": "Kaset Wisai", 
      "lat": "15.6556", 
      "lng": "103.5836", 
      "country": "Thailand", 
      "iso2": "TH", 
      "admin_name": "Roi Et", 
      "capital": "minor", 
      "population": "11217", 
      "population_proper": "11217"
    }, 
    {
      "city": "Bang Ban", 
      "lat": "14.3739", 
      "lng": "100.4853", 
      "country": "Thailand", 
      "iso2": "TH", 
      "admin_name": "Phra Nakhon Si Ayutthaya", 
      "capital": "minor", 
      "population": "11092", 
      "population_proper": "11092"
    }, 
    {
      "city": "Si Wilai", 
      "lat": "18.1865", 
      "lng": "103.7408", 
      "country": "Thailand", 
      "iso2": "TH", 
      "admin_name": "Bueng Kan", 
      "capital": "minor", 
      "population": "11090", 
      "population_proper": "11090"
    }, 
    {
      "city": "Khlung", 
      "lat": "12.4547", 
      "lng": "102.2214", 
      "country": "Thailand", 
      "iso2": "TH", 
      "admin_name": "Chanthaburi", 
      "capital": "minor", 
      "population": "11073", 
      "population_proper": "11073"
    }, 
    {
      "city": "Phanat Nikhom", 
      "lat": "13.4458", 
      "lng": "101.1844", 
      "country": "Thailand", 
      "iso2": "TH", 
      "admin_name": "Chon Buri", 
      "capital": "minor", 
      "population": "11032", 
      "population_proper": "11032"
    }, 
    {
      "city": "Fao Rai", 
      "lat": "18.0175", 
      "lng": "103.3057", 
      "country": "Thailand", 
      "iso2": "TH", 
      "admin_name": "Nong Khai", 
      "capital": "minor", 
      "population": "10978", 
      "population_proper": "10978"
    }, 
    {
      "city": "Phrai Bueng", 
      "lat": "14.7490", 
      "lng": "104.3574", 
      "country": "Thailand", 
      "iso2": "TH", 
      "admin_name": "Sisaket", 
      "capital": "minor", 
      "population": "10864", 
      "population_proper": "10864"
    }, 
    {
      "city": "Phibun Mangsahan", 
      "lat": "15.2482", 
      "lng": "105.2296", 
      "country": "Thailand", 
      "iso2": "TH", 
      "admin_name": "Ubon Ratchathani", 
      "capital": "minor", 
      "population": "10842", 
      "population_proper": "10842"
    }, 
    {
      "city": "Pua", 
      "lat": "19.1799", 
      "lng": "100.9089", 
      "country": "Thailand", 
      "iso2": "TH", 
      "admin_name": "Nan", 
      "capital": "minor", 
      "population": "10831", 
      "population_proper": "10831"
    }, 
    {
      "city": "Ban Bang Toei", 
      "lat": "14.0656", 
      "lng": "100.5226", 
      "country": "Thailand", 
      "iso2": "TH", 
      "admin_name": "Pathum Thani", 
      "capital": "", 
      "population": "10828", 
      "population_proper": "10828"
    }, 
    {
      "city": "Ban Bang Yai", 
      "lat": "13.8369", 
      "lng": "100.3591", 
      "country": "Thailand", 
      "iso2": "TH", 
      "admin_name": "Nonthaburi", 
      "capital": "", 
      "population": "10767", 
      "population_proper": "10767"
    }, 
    {
      "city": "Wang Sombun", 
      "lat": "13.3515", 
      "lng": "102.1833", 
      "country": "Thailand", 
      "iso2": "TH", 
      "admin_name": "Sa Kaeo", 
      "capital": "minor", 
      "population": "10747", 
      "population_proper": "10747"
    }, 
    {
      "city": "Kranuan", 
      "lat": "16.7081", 
      "lng": "103.0811", 
      "country": "Thailand", 
      "iso2": "TH", 
      "admin_name": "Khon Kaen", 
      "capital": "minor", 
      "population": "10726", 
      "population_proper": "10726"
    }, 
    {
      "city": "Sam Ko", 
      "lat": "14.6013", 
      "lng": "100.2602", 
      "country": "Thailand", 
      "iso2": "TH", 
      "admin_name": "Ang Thong", 
      "capital": "minor", 
      "population": "10696", 
      "population_proper": "10696"
    }, 
    {
      "city": "Ban Lueak", 
      "lat": "13.7065", 
      "lng": "99.8902", 
      "country": "Thailand", 
      "iso2": "TH", 
      "admin_name": "Ratchaburi", 
      "capital": "", 
      "population": "10630", 
      "population_proper": "10630"
    }, 
    {
      "city": "Ban Ko", 
      "lat": "13.6486", 
      "lng": "100.0063", 
      "country": "Thailand", 
      "iso2": "TH", 
      "admin_name": "Ratchaburi", 
      "capital": "", 
      "population": "10614", 
      "population_proper": "10614"
    }, 
    {
      "city": "Mae Ai", 
      "lat": "20.0296", 
      "lng": "99.2847", 
      "country": "Thailand", 
      "iso2": "TH", 
      "admin_name": "Chiang Mai", 
      "capital": "minor", 
      "population": "10558", 
      "population_proper": "10558"
    }, 
    {
      "city": "Ban Thung Khao Phuang", 
      "lat": "19.5342", 
      "lng": "98.9621", 
      "country": "Thailand", 
      "iso2": "TH", 
      "admin_name": "Chiang Mai", 
      "capital": "", 
      "population": "10500", 
      "population_proper": "10500"
    }, 
    {
      "city": "Phai Sali", 
      "lat": "15.6000", 
      "lng": "100.6494", 
      "country": "Thailand", 
      "iso2": "TH", 
      "admin_name": "Nakhon Sawan", 
      "capital": "minor", 
      "population": "10450", 
      "population_proper": "10450"
    }, 
    {
      "city": "Trat", 
      "lat": "12.2417", 
      "lng": "102.5125", 
      "country": "Thailand", 
      "iso2": "TH", 
      "admin_name": "Trat", 
      "capital": "admin", 
      "population": "10413", 
      "population_proper": "10413"
    }, 
    {
      "city": "Phangnga", 
      "lat": "8.4644", 
      "lng": "98.5317", 
      "country": "Thailand", 
      "iso2": "TH", 
      "admin_name": "Phangnga", 
      "capital": "admin", 
      "population": "10412", 
      "population_proper": "10412"
    }, 
    {
      "city": "Prakhon Chai", 
      "lat": "14.6058", 
      "lng": "103.1208", 
      "country": "Thailand", 
      "iso2": "TH", 
      "admin_name": "Buriram", 
      "capital": "minor", 
      "population": "10404", 
      "population_proper": "10404"
    }, 
    {
      "city": "Phon Charoen", 
      "lat": "18.0250", 
      "lng": "103.7060", 
      "country": "Thailand", 
      "iso2": "TH", 
      "admin_name": "Bueng Kan", 
      "capital": "minor", 
      "population": "10357", 
      "population_proper": "10357"
    }, 
    {
      "city": "Kut Chap", 
      "lat": "17.4262", 
      "lng": "102.5646", 
      "country": "Thailand", 
      "iso2": "TH", 
      "admin_name": "Udon Thani", 
      "capital": "minor", 
      "population": "10259", 
      "population_proper": "10259"
    }, 
    {
      "city": "Tha Muang", 
      "lat": "13.9611", 
      "lng": "99.6411", 
      "country": "Thailand", 
      "iso2": "TH", 
      "admin_name": "Kanchanaburi", 
      "capital": "minor", 
      "population": "10219", 
      "population_proper": "10219"
    }, 
    {
      "city": "Ban Bong Tai", 
      "lat": "17.4057", 
      "lng": "103.2992", 
      "country": "Thailand", 
      "iso2": "TH", 
      "admin_name": "Sakon Nakhon", 
      "capital": "", 
      "population": "10214", 
      "population_proper": "10214"
    }, 
    {
      "city": "Phra Pradaeng", 
      "lat": "13.6590", 
      "lng": "100.5329", 
      "country": "Thailand", 
      "iso2": "TH", 
      "admin_name": "Samut Prakan", 
      "capital": "minor", 
      "population": "10190", 
      "population_proper": "10190"
    }, 
    {
      "city": "Tha Mai", 
      "lat": "12.6196", 
      "lng": "102.0112", 
      "country": "Thailand", 
      "iso2": "TH", 
      "admin_name": "Chanthaburi", 
      "capital": "minor", 
      "population": "10185", 
      "population_proper": "10185"
    }, 
    {
      "city": "Ban Klang", 
      "lat": "18.5791", 
      "lng": "99.0686", 
      "country": "Thailand", 
      "iso2": "TH", 
      "admin_name": "Lamphun", 
      "capital": "", 
      "population": "10143", 
      "population_proper": "10143"
    }, 
    {
      "city": "Nong Ki", 
      "lat": "14.6867", 
      "lng": "102.5325", 
      "country": "Thailand", 
      "iso2": "TH", 
      "admin_name": "Buriram", 
      "capital": "minor", 
      "population": "10089", 
      "population_proper": "10089"
    }, 
    {
      "city": "Ban Bu Sung", 
      "lat": "14.9602", 
      "lng": "104.1657", 
      "country": "Thailand", 
      "iso2": "TH", 
      "admin_name": "Sisaket", 
      "capital": "", 
      "population": "10063", 
      "population_proper": "10063"
    }, 
    {
      "city": "Sung Noen", 
      "lat": "14.8992", 
      "lng": "101.8208", 
      "country": "Thailand", 
      "iso2": "TH", 
      "admin_name": "Nakhon Ratchasima", 
      "capital": "minor", 
      "population": "10061", 
      "population_proper": "10061"
    }, 
    {
      "city": "Kamalasai", 
      "lat": "16.3383", 
      "lng": "103.5756", 
      "country": "Thailand", 
      "iso2": "TH", 
      "admin_name": "Kalasin", 
      "capital": "minor", 
      "population": "9942", 
      "population_proper": "9942"
    }, 
    {
      "city": "Phak Hai", 
      "lat": "14.4626", 
      "lng": "100.3667", 
      "country": "Thailand", 
      "iso2": "TH", 
      "admin_name": "Phra Nakhon Si Ayutthaya", 
      "capital": "minor", 
      "population": "9905", 
      "population_proper": "9905"
    }, 
    {
      "city": "Wiang Sa", 
      "lat": "8.6358", 
      "lng": "99.3667", 
      "country": "Thailand", 
      "iso2": "TH", 
      "admin_name": "Surat Thani", 
      "capital": "minor", 
      "population": "9904", 
      "population_proper": "9904"
    }, 
    {
      "city": "Ban Ratchakrut", 
      "lat": "9.7571", 
      "lng": "98.5915", 
      "country": "Thailand", 
      "iso2": "TH", 
      "admin_name": "Ranong", 
      "capital": "", 
      "population": "9835", 
      "population_proper": "9835"
    }, 
    {
      "city": "Non Sung", 
      "lat": "15.1788", 
      "lng": "102.2514", 
      "country": "Thailand", 
      "iso2": "TH", 
      "admin_name": "Nakhon Ratchasima", 
      "capital": "minor", 
      "population": "9828", 
      "population_proper": "9828"
    }, 
    {
      "city": "Nong Wua So", 
      "lat": "17.1625", 
      "lng": "102.5728", 
      "country": "Thailand", 
      "iso2": "TH", 
      "admin_name": "Udon Thani", 
      "capital": "minor", 
      "population": "9816", 
      "population_proper": "9816"
    }, 
    {
      "city": "Bueng Khong Long", 
      "lat": "17.9684", 
      "lng": "104.0484", 
      "country": "Thailand", 
      "iso2": "TH", 
      "admin_name": "Bueng Kan", 
      "capital": "minor", 
      "population": "9777", 
      "population_proper": "9777"
    }, 
    {
      "city": "Chom Thong", 
      "lat": "18.4180", 
      "lng": "98.6758", 
      "country": "Thailand", 
      "iso2": "TH", 
      "admin_name": "Chiang Mai", 
      "capital": "minor", 
      "population": "9777", 
      "population_proper": "9777"
    }, 
    {
      "city": "Chiang Klang", 
      "lat": "19.2939", 
      "lng": "100.8617", 
      "country": "Thailand", 
      "iso2": "TH", 
      "admin_name": "Nan", 
      "capital": "minor", 
      "population": "9721", 
      "population_proper": "9721"
    }, 
    {
      "city": "Thap Khlo", 
      "lat": "16.1600", 
      "lng": "100.5967", 
      "country": "Thailand", 
      "iso2": "TH", 
      "admin_name": "Phichit", 
      "capital": "minor", 
      "population": "9676", 
      "population_proper": "9676"
    }, 
    {
      "city": "Mae Rim", 
      "lat": "18.9163", 
      "lng": "98.9605", 
      "country": "Thailand", 
      "iso2": "TH", 
      "admin_name": "Chiang Mai", 
      "capital": "minor", 
      "population": "9590", 
      "population_proper": "9590"
    }, 
    {
      "city": "Photharam", 
      "lat": "13.6918", 
      "lng": "99.8531", 
      "country": "Thailand", 
      "iso2": "TH", 
      "admin_name": "Ratchaburi", 
      "capital": "minor", 
      "population": "9575", 
      "population_proper": "9575"
    }, 
    {
      "city": "Ban Bo Phlap", 
      "lat": "13.8439", 
      "lng": "100.0686", 
      "country": "Thailand", 
      "iso2": "TH", 
      "admin_name": "Nakhon Pathom", 
      "capital": "", 
      "population": "9519", 
      "population_proper": "9519"
    }, 
    {
      "city": "Kanchanadit", 
      "lat": "9.1653", 
      "lng": "99.4706", 
      "country": "Thailand", 
      "iso2": "TH", 
      "admin_name": "Surat Thani", 
      "capital": "minor", 
      "population": "9492", 
      "population_proper": "9492"
    }, 
    {
      "city": "Ban Krot", 
      "lat": "14.3121", 
      "lng": "100.6005", 
      "country": "Thailand", 
      "iso2": "TH", 
      "admin_name": "Phra Nakhon Si Ayutthaya", 
      "capital": "", 
      "population": "9471", 
      "population_proper": "9471"
    }, 
    {
      "city": "Ban Bang Phlap", 
      "lat": "13.9241", 
      "lng": "100.4684", 
      "country": "Thailand", 
      "iso2": "TH", 
      "admin_name": "Nonthaburi", 
      "capital": "", 
      "population": "9434", 
      "population_proper": "9434"
    }, 
    {
      "city": "Bang Khla", 
      "lat": "13.7268", 
      "lng": "101.2105", 
      "country": "Thailand", 
      "iso2": "TH", 
      "admin_name": "Chachoengsao", 
      "capital": "minor", 
      "population": "9357", 
      "population_proper": "9357"
    }, 
    {
      "city": "Nakhon Thai", 
      "lat": "17.1011", 
      "lng": "100.8296", 
      "country": "Thailand", 
      "iso2": "TH", 
      "admin_name": "Phitsanulok", 
      "capital": "minor", 
      "population": "9278", 
      "population_proper": "9278"
    }, 
    {
      "city": "Nong Kung Si", 
      "lat": "16.6500", 
      "lng": "103.3000", 
      "country": "Thailand", 
      "iso2": "TH", 
      "admin_name": "Kalasin", 
      "capital": "minor", 
      "population": "9213", 
      "population_proper": "9213"
    }, 
    {
      "city": "Pong Nam Ron", 
      "lat": "12.9058", 
      "lng": "102.2622", 
      "country": "Thailand", 
      "iso2": "TH", 
      "admin_name": "Chanthaburi", 
      "capital": "minor", 
      "population": "9210", 
      "population_proper": "9210"
    }, 
    {
      "city": "Ban Kham Pom", 
      "lat": "15.9653", 
      "lng": "105.2112", 
      "country": "Thailand", 
      "iso2": "TH", 
      "admin_name": "Ubon Ratchathani", 
      "capital": "", 
      "population": "9209", 
      "population_proper": "9209"
    }, 
    {
      "city": "Suwannaphum", 
      "lat": "15.6078", 
      "lng": "103.8000", 
      "country": "Thailand", 
      "iso2": "TH", 
      "admin_name": "Roi Et", 
      "capital": "minor", 
      "population": "9183", 
      "population_proper": "9183"
    }, 
    {
      "city": "Ban Tha Phra", 
      "lat": "16.3298", 
      "lng": "102.7998", 
      "country": "Thailand", 
      "iso2": "TH", 
      "admin_name": "Khon Kaen", 
      "capital": "", 
      "population": "9170", 
      "population_proper": "9170"
    }, 
    {
      "city": "Akat Amnuai", 
      "lat": "17.5898", 
      "lng": "103.9859", 
      "country": "Thailand", 
      "iso2": "TH", 
      "admin_name": "Sakon Nakhon", 
      "capital": "minor", 
      "population": "9070", 
      "population_proper": "9070"
    }, 
    {
      "city": "Kaeng Khro", 
      "lat": "16.1083", 
      "lng": "102.2576", 
      "country": "Thailand", 
      "iso2": "TH", 
      "admin_name": "Chaiyaphum", 
      "capital": "minor", 
      "population": "9012", 
      "population_proper": "9012"
    }, 
    {
      "city": "Tha Luang", 
      "lat": "15.0697", 
      "lng": "101.1182", 
      "country": "Thailand", 
      "iso2": "TH", 
      "admin_name": "Lop Buri", 
      "capital": "minor", 
      "population": "9003", 
      "population_proper": "9003"
    }, 
    {
      "city": "Kosum Phisai", 
      "lat": "16.2430", 
      "lng": "103.0627", 
      "country": "Thailand", 
      "iso2": "TH", 
      "admin_name": "Maha Sarakham", 
      "capital": "minor", 
      "population": "8984", 
      "population_proper": "8984"
    }, 
    {
      "city": "Thung Sai", 
      "lat": "16.2955", 
      "lng": "99.8089", 
      "country": "Thailand", 
      "iso2": "TH", 
      "admin_name": "Kamphaeng Phet", 
      "capital": "minor", 
      "population": "8971", 
      "population_proper": "8971"
    }, 
    {
      "city": "Thap Than", 
      "lat": "15.4570", 
      "lng": "99.8961", 
      "country": "Thailand", 
      "iso2": "TH", 
      "admin_name": "Uthai Thani", 
      "capital": "minor", 
      "population": "8931", 
      "population_proper": "8931"
    }, 
    {
      "city": "Kui Buri", 
      "lat": "12.0702", 
      "lng": "99.8667", 
      "country": "Thailand", 
      "iso2": "TH", 
      "admin_name": "Prachuap Khiri Khan", 
      "capital": "minor", 
      "population": "8916", 
      "population_proper": "8916"
    }, 
    {
      "city": "Takua Pa", 
      "lat": "8.8658", 
      "lng": "98.3413", 
      "country": "Thailand", 
      "iso2": "TH", 
      "admin_name": "Phangnga", 
      "capital": "minor", 
      "population": "8815", 
      "population_proper": "8815"
    }, 
    {
      "city": "Bang Mun Nak", 
      "lat": "16.0278", 
      "lng": "100.3792", 
      "country": "Thailand", 
      "iso2": "TH", 
      "admin_name": "Phichit", 
      "capital": "minor", 
      "population": "8756", 
      "population_proper": "8756"
    }, 
    {
      "city": "Nam Som", 
      "lat": "17.7703", 
      "lng": "102.1894", 
      "country": "Thailand", 
      "iso2": "TH", 
      "admin_name": "Udon Thani", 
      "capital": "minor", 
      "population": "8742", 
      "population_proper": "8742"
    }, 
    {
      "city": "Phimai", 
      "lat": "15.2167", 
      "lng": "102.5000", 
      "country": "Thailand", 
      "iso2": "TH", 
      "admin_name": "Nakhon Ratchasima", 
      "capital": "minor", 
      "population": "8696", 
      "population_proper": "8696"
    }, 
    {
      "city": "Kumphawapi", 
      "lat": "17.1151", 
      "lng": "103.0186", 
      "country": "Thailand", 
      "iso2": "TH", 
      "admin_name": "Udon Thani", 
      "capital": "minor", 
      "population": "8667", 
      "population_proper": "8667"
    }, 
    {
      "city": "Yang Talat", 
      "lat": "16.3997", 
      "lng": "103.3678", 
      "country": "Thailand", 
      "iso2": "TH", 
      "admin_name": "Kalasin", 
      "capital": "minor", 
      "population": "8666", 
      "population_proper": "8666"
    }, 
    {
      "city": "Pa Sang", 
      "lat": "18.5177", 
      "lng": "98.9394", 
      "country": "Thailand", 
      "iso2": "TH", 
      "admin_name": "Lamphun", 
      "capital": "minor", 
      "population": "8645", 
      "population_proper": "8645"
    }, 
    {
      "city": "Sawang Daen Din", 
      "lat": "17.4750", 
      "lng": "103.4569", 
      "country": "Thailand", 
      "iso2": "TH", 
      "admin_name": "Sakon Nakhon", 
      "capital": "minor", 
      "population": "8486", 
      "population_proper": "8486"
    }, 
    {
      "city": "Ban Na", 
      "lat": "12.8270", 
      "lng": "101.6692", 
      "country": "Thailand", 
      "iso2": "TH", 
      "admin_name": "Rayong", 
      "capital": "", 
      "population": "8468", 
      "population_proper": "8468"
    }, 
    {
      "city": "Ban Buak Khang", 
      "lat": "18.7057", 
      "lng": "99.1068", 
      "country": "Thailand", 
      "iso2": "TH", 
      "admin_name": "Chiang Mai", 
      "capital": "", 
      "population": "8462", 
      "population_proper": "8462"
    }, 
    {
      "city": "Non Sang", 
      "lat": "16.8699", 
      "lng": "102.5640", 
      "country": "Thailand", 
      "iso2": "TH", 
      "admin_name": "Nong Bua Lamphu", 
      "capital": "minor", 
      "population": "8449", 
      "population_proper": "8449"
    }, 
    {
      "city": "Bang Len", 
      "lat": "14.0219", 
      "lng": "100.1719", 
      "country": "Thailand", 
      "iso2": "TH", 
      "admin_name": "Nakhon Pathom", 
      "capital": "minor", 
      "population": "8429", 
      "population_proper": "8429"
    }, 
    {
      "city": "Chumsaeng", 
      "lat": "15.8980", 
      "lng": "100.3110", 
      "country": "Thailand", 
      "iso2": "TH", 
      "admin_name": "Nakhon Sawan", 
      "capital": "minor", 
      "population": "8426", 
      "population_proper": "8426"
    }, 
    {
      "city": "Ban Tham", 
      "lat": "19.0727", 
      "lng": "100.0698", 
      "country": "Thailand", 
      "iso2": "TH", 
      "admin_name": "Phayao", 
      "capital": "", 
      "population": "8399", 
      "population_proper": "8399"
    }, 
    {
      "city": "Ban Pa Lu Ru", 
      "lat": "6.0874", 
      "lng": "101.8728", 
      "country": "Thailand", 
      "iso2": "TH", 
      "admin_name": "Narathiwat", 
      "capital": "", 
      "population": "8314", 
      "population_proper": "8314"
    }, 
    {
      "city": "Phayakkhaphum Phisai", 
      "lat": "15.5183", 
      "lng": "103.1921", 
      "country": "Thailand", 
      "iso2": "TH", 
      "admin_name": "Maha Sarakham", 
      "capital": "minor", 
      "population": "8308", 
      "population_proper": "8308"
    }, 
    {
      "city": "Khanu Woralaksaburi", 
      "lat": "16.0740", 
      "lng": "99.8574", 
      "country": "Thailand", 
      "iso2": "TH", 
      "admin_name": "Kamphaeng Phet", 
      "capital": "minor", 
      "population": "8264", 
      "population_proper": "8264"
    }, 
    {
      "city": "U Thong", 
      "lat": "14.3761", 
      "lng": "99.8922", 
      "country": "Thailand", 
      "iso2": "TH", 
      "admin_name": "Suphan Buri", 
      "capital": "minor", 
      "population": "8237", 
      "population_proper": "8237"
    }, 
    {
      "city": "Nakhon Chai Si", 
      "lat": "13.8005", 
      "lng": "100.1869", 
      "country": "Thailand", 
      "iso2": "TH", 
      "admin_name": "Nakhon Pathom", 
      "capital": "minor", 
      "population": "8226", 
      "population_proper": "8226"
    }, 
    {
      "city": "Chonnabot", 
      "lat": "16.0840", 
      "lng": "102.6193", 
      "country": "Thailand", 
      "iso2": "TH", 
      "admin_name": "Khon Kaen", 
      "capital": "minor", 
      "population": "8145", 
      "population_proper": "8145"
    }, 
    {
      "city": "Sawang Wirawong", 
      "lat": "15.2417", 
      "lng": "105.0922", 
      "country": "Thailand", 
      "iso2": "TH", 
      "admin_name": "Ubon Ratchathani", 
      "capital": "minor", 
      "population": "8136", 
      "population_proper": "8136"
    }, 
    {
      "city": "Tha Maka", 
      "lat": "13.9203", 
      "lng": "99.7667", 
      "country": "Thailand", 
      "iso2": "TH", 
      "admin_name": "Kanchanaburi", 
      "capital": "minor", 
      "population": "8093", 
      "population_proper": "8093"
    }, 
    {
      "city": "Ron Phibun", 
      "lat": "8.1722", 
      "lng": "99.8533", 
      "country": "Thailand", 
      "iso2": "TH", 
      "admin_name": "Nakhon Si Thammarat", 
      "capital": "minor", 
      "population": "8086", 
      "population_proper": "8086"
    }, 
    {
      "city": "Ban Huai Mai", 
      "lat": "18.4217", 
      "lng": "100.1403", 
      "country": "Thailand", 
      "iso2": "TH", 
      "admin_name": "Phrae", 
      "capital": "", 
      "population": "8061", 
      "population_proper": "8061"
    }, 
    {
      "city": "Ban Banlang", 
      "lat": "15.2255", 
      "lng": "101.9112", 
      "country": "Thailand", 
      "iso2": "TH", 
      "admin_name": "Nakhon Ratchasima", 
      "capital": "", 
      "population": "7957", 
      "population_proper": "7957"
    }, 
    {
      "city": "Damnoen Saduak", 
      "lat": "13.5183", 
      "lng": "99.9547", 
      "country": "Thailand", 
      "iso2": "TH", 
      "admin_name": "Ratchaburi", 
      "capital": "minor", 
      "population": "7943", 
      "population_proper": "7943"
    }, 
    {
      "city": "Chaiya", 
      "lat": "9.3778", 
      "lng": "99.2728", 
      "country": "Thailand", 
      "iso2": "TH", 
      "admin_name": "Surat Thani", 
      "capital": "minor", 
      "population": "7870", 
      "population_proper": "7870"
    }, 
    {
      "city": "Nong Phai", 
      "lat": "15.9972", 
      "lng": "101.0652", 
      "country": "Thailand", 
      "iso2": "TH", 
      "admin_name": "Phetchabun", 
      "capital": "minor", 
      "population": "7813", 
      "population_proper": "7813"
    }, 
    {
      "city": "Ban Pao", 
      "lat": "16.3770", 
      "lng": "101.9751", 
      "country": "Thailand", 
      "iso2": "TH", 
      "admin_name": "Chaiyaphum", 
      "capital": "", 
      "population": "7810", 
      "population_proper": "7810"
    }, 
    {
      "city": "Khon Buri", 
      "lat": "14.5686", 
      "lng": "102.1564", 
      "country": "Thailand", 
      "iso2": "TH", 
      "admin_name": "Nakhon Ratchasima", 
      "capital": "minor", 
      "population": "7781", 
      "population_proper": "7781"
    }, 
    {
      "city": "Thung Saliam", 
      "lat": "17.3240", 
      "lng": "99.5671", 
      "country": "Thailand", 
      "iso2": "TH", 
      "admin_name": "Sukhothai", 
      "capital": "minor", 
      "population": "7760", 
      "population_proper": "7760"
    }, 
    {
      "city": "Soeng Sang", 
      "lat": "14.4242", 
      "lng": "102.4584", 
      "country": "Thailand", 
      "iso2": "TH", 
      "admin_name": "Nakhon Ratchasima", 
      "capital": "minor", 
      "population": "7756", 
      "population_proper": "7756"
    }, 
    {
      "city": "Ban Phue", 
      "lat": "17.6874", 
      "lng": "102.4756", 
      "country": "Thailand", 
      "iso2": "TH", 
      "admin_name": "Udon Thani", 
      "capital": "minor", 
      "population": "7740", 
      "population_proper": "7740"
    }, 
    {
      "city": "Phu Kradueng", 
      "lat": "16.8842", 
      "lng": "101.8847", 
      "country": "Thailand", 
      "iso2": "TH", 
      "admin_name": "Loei", 
      "capital": "minor", 
      "population": "7491", 
      "population_proper": "7491"
    }, 
    {
      "city": "Sa Bot", 
      "lat": "15.2084", 
      "lng": "100.8340", 
      "country": "Thailand", 
      "iso2": "TH", 
      "admin_name": "Lop Buri", 
      "capital": "minor", 
      "population": "7477", 
      "population_proper": "7477"
    }, 
    {
      "city": "Ban Duea", 
      "lat": "17.9814", 
      "lng": "102.9912", 
      "country": "Thailand", 
      "iso2": "TH", 
      "admin_name": "Nong Khai", 
      "capital": "", 
      "population": "7426", 
      "population_proper": "7426"
    }, 
    {
      "city": "Uthumphon Phisai", 
      "lat": "15.0970", 
      "lng": "104.1643", 
      "country": "Thailand", 
      "iso2": "TH", 
      "admin_name": "Sisaket", 
      "capital": "minor", 
      "population": "7417", 
      "population_proper": "7417"
    }, 
    {
      "city": "Bang Pa-in", 
      "lat": "14.2200", 
      "lng": "100.5813", 
      "country": "Thailand", 
      "iso2": "TH", 
      "admin_name": "Phra Nakhon Si Ayutthaya", 
      "capital": "minor", 
      "population": "7380", 
      "population_proper": "7380"
    }, 
    {
      "city": "Thung Fon", 
      "lat": "17.4722", 
      "lng": "103.2626", 
      "country": "Thailand", 
      "iso2": "TH", 
      "admin_name": "Udon Thani", 
      "capital": "minor", 
      "population": "7343", 
      "population_proper": "7343"
    }, 
    {
      "city": "Hang Dong", 
      "lat": "18.6886", 
      "lng": "98.9193", 
      "country": "Thailand", 
      "iso2": "TH", 
      "admin_name": "Chiang Mai", 
      "capital": "minor", 
      "population": "7291", 
      "population_proper": "7291"
    }, 
    {
      "city": "Ra-ngae", 
      "lat": "6.2942", 
      "lng": "101.7238", 
      "country": "Thailand", 
      "iso2": "TH", 
      "admin_name": "Narathiwat", 
      "capital": "minor", 
      "population": "7266", 
      "population_proper": "7266"
    }, 
    {
      "city": "Bamnet Narong", 
      "lat": "15.5034", 
      "lng": "101.6810", 
      "country": "Thailand", 
      "iso2": "TH", 
      "admin_name": "Chaiyaphum", 
      "capital": "minor", 
      "population": "7147", 
      "population_proper": "7147"
    }, 
    {
      "city": "Si Chiang Mai", 
      "lat": "17.9564", 
      "lng": "102.5867", 
      "country": "Thailand", 
      "iso2": "TH", 
      "admin_name": "Nong Khai", 
      "capital": "minor", 
      "population": "7142", 
      "population_proper": "7142"
    }, 
    {
      "city": "Bo Phloi", 
      "lat": "14.3253", 
      "lng": "99.5147", 
      "country": "Thailand", 
      "iso2": "TH", 
      "admin_name": "Kanchanaburi", 
      "capital": "minor", 
      "population": "7095", 
      "population_proper": "7095"
    }, 
    {
      "city": "Nakhon Luang", 
      "lat": "14.4701", 
      "lng": "100.6135", 
      "country": "Thailand", 
      "iso2": "TH", 
      "admin_name": "Phra Nakhon Si Ayutthaya", 
      "capital": "minor", 
      "population": "7092", 
      "population_proper": "7092"
    }, 
    {
      "city": "Ban Bua Ngam", 
      "lat": "14.8108", 
      "lng": "105.2312", 
      "country": "Thailand", 
      "iso2": "TH", 
      "admin_name": "Ubon Ratchathani", 
      "capital": "", 
      "population": "7086", 
      "population_proper": "7086"
    }, 
    {
      "city": "Ban Chan", 
      "lat": "17.3595", 
      "lng": "102.8170", 
      "country": "Thailand", 
      "iso2": "TH", 
      "admin_name": "Udon Thani", 
      "capital": "", 
      "population": "7081", 
      "population_proper": "7081"
    }, 
    {
      "city": "Ko Pha-Ngan", 
      "lat": "9.7176", 
      "lng": "99.9949", 
      "country": "Thailand", 
      "iso2": "TH", 
      "admin_name": "Surat Thani", 
      "capital": "minor", 
      "population": "7035", 
      "population_proper": "7035"
    }, 
    {
      "city": "Sichon", 
      "lat": "9.0072", 
      "lng": "99.9018", 
      "country": "Thailand", 
      "iso2": "TH", 
      "admin_name": "Prachuap Khiri Khan", 
      "capital": "", 
      "population": "7027", 
      "population_proper": "7027"
    }, 
    {
      "city": "Chiang Kham", 
      "lat": "19.5223", 
      "lng": "100.3034", 
      "country": "Thailand", 
      "iso2": "TH", 
      "admin_name": "Phayao", 
      "capital": "minor", 
      "population": "7005", 
      "population_proper": "7005"
    }, 
    {
      "city": "Tha Ruea", 
      "lat": "14.5596", 
      "lng": "100.7226", 
      "country": "Thailand", 
      "iso2": "TH", 
      "admin_name": "Phra Nakhon Si Ayutthaya", 
      "capital": "minor", 
      "population": "6979", 
      "population_proper": "6979"
    }, 
    {
      "city": "Ban Karaket", 
      "lat": "8.0887", 
      "lng": "100.1398", 
      "country": "Thailand", 
      "iso2": "TH", 
      "admin_name": "Nakhon Si Thammarat", 
      "capital": "", 
      "population": "6956", 
      "population_proper": "6956"
    }, 
    {
      "city": "Ban Kamphuan", 
      "lat": "9.3782", 
      "lng": "98.4209", 
      "country": "Thailand", 
      "iso2": "TH", 
      "admin_name": "Ranong", 
      "capital": "", 
      "population": "6886", 
      "population_proper": "6886"
    }, 
    {
      "city": "Ban Wang Kalang", 
      "lat": "15.1436", 
      "lng": "98.4498", 
      "country": "Thailand", 
      "iso2": "TH", 
      "admin_name": "Kanchanaburi", 
      "capital": "", 
      "population": "6877", 
      "population_proper": "6877"
    }, 
    {
      "city": "Charoen Sin", 
      "lat": "17.5837", 
      "lng": "103.5422", 
      "country": "Thailand", 
      "iso2": "TH", 
      "admin_name": "Sakon Nakhon", 
      "capital": "minor", 
      "population": "6871", 
      "population_proper": "6871"
    }, 
    {
      "city": "Na Duang", 
      "lat": "17.4743", 
      "lng": "101.9800", 
      "country": "Thailand", 
      "iso2": "TH", 
      "admin_name": "Loei", 
      "capital": "minor", 
      "population": "6773", 
      "population_proper": "6773"
    }, 
    {
      "city": "Ban Haet", 
      "lat": "16.2000", 
      "lng": "102.7492", 
      "country": "Thailand", 
      "iso2": "TH", 
      "admin_name": "Khon Kaen", 
      "capital": "minor", 
      "population": "6741", 
      "population_proper": "6741"
    }, 
    {
      "city": "Ban Phon Yai", 
      "lat": "17.1821", 
      "lng": "104.3316", 
      "country": "Thailand", 
      "iso2": "TH", 
      "admin_name": "Sakon Nakhon", 
      "capital": "", 
      "population": "6563", 
      "population_proper": "6563"
    }, 
    {
      "city": "Phanom Sarakham", 
      "lat": "13.7437", 
      "lng": "101.3523", 
      "country": "Thailand", 
      "iso2": "TH", 
      "admin_name": "Chachoengsao", 
      "capital": "minor", 
      "population": "6527", 
      "population_proper": "6527"
    }, 
    {
      "city": "Mae Hong Son", 
      "lat": "19.3011", 
      "lng": "97.9700", 
      "country": "Thailand", 
      "iso2": "TH", 
      "admin_name": "Mae Hong Son", 
      "capital": "admin", 
      "population": "6526", 
      "population_proper": "6526"
    }, 
    {
      "city": "Bua Chet", 
      "lat": "14.5326", 
      "lng": "103.9301", 
      "country": "Thailand", 
      "iso2": "TH", 
      "admin_name": "Surin", 
      "capital": "minor", 
      "population": "6515", 
      "population_proper": "6515"
    }, 
    {
      "city": "That Phanom", 
      "lat": "16.9364", 
      "lng": "104.7103", 
      "country": "Thailand", 
      "iso2": "TH", 
      "admin_name": "Nakhon Phanom", 
      "capital": "minor", 
      "population": "6494", 
      "population_proper": "6494"
    }, 
    {
      "city": "Lat Yao", 
      "lat": "15.7543", 
      "lng": "99.7808", 
      "country": "Thailand", 
      "iso2": "TH", 
      "admin_name": "Nakhon Sawan", 
      "capital": "minor", 
      "population": "6483", 
      "population_proper": "6483"
    }, 
    {
      "city": "Ban Tai", 
      "lat": "17.4333", 
      "lng": "103.4051", 
      "country": "Thailand", 
      "iso2": "TH", 
      "admin_name": "Sakon Nakhon", 
      "capital": "", 
      "population": "6483", 
      "population_proper": "6483"
    }, 
    {
      "city": "Nikhom Kham Soi", 
      "lat": "16.3749", 
      "lng": "104.5551", 
      "country": "Thailand", 
      "iso2": "TH", 
      "admin_name": "Mukdahan", 
      "capital": "minor", 
      "population": "6475", 
      "population_proper": "6475"
    }, 
    {
      "city": "Khok Samrong", 
      "lat": "15.0691", 
      "lng": "100.7234", 
      "country": "Thailand", 
      "iso2": "TH", 
      "admin_name": "Lop Buri", 
      "capital": "minor", 
      "population": "6456", 
      "population_proper": "6456"
    }, 
    {
      "city": "Phu Khiao", 
      "lat": "16.3682", 
      "lng": "102.1344", 
      "country": "Thailand", 
      "iso2": "TH", 
      "admin_name": "Chaiyaphum", 
      "capital": "minor", 
      "population": "6450", 
      "population_proper": "6450"
    }, 
    {
      "city": "Dan Khun Thot", 
      "lat": "15.2099", 
      "lng": "101.7667", 
      "country": "Thailand", 
      "iso2": "TH", 
      "admin_name": "Nakhon Ratchasima", 
      "capital": "minor", 
      "population": "6432", 
      "population_proper": "6432"
    }, 
    {
      "city": "Pa Daet", 
      "lat": "19.5050", 
      "lng": "99.9925", 
      "country": "Thailand", 
      "iso2": "TH", 
      "admin_name": "Chiang Rai", 
      "capital": "minor", 
      "population": "6427", 
      "population_proper": "6427"
    }, 
    {
      "city": "Ban Bang Pakong", 
      "lat": "13.5051", 
      "lng": "100.9567", 
      "country": "Thailand", 
      "iso2": "TH", 
      "admin_name": "Chachoengsao", 
      "capital": "", 
      "population": "6416", 
      "population_proper": "6416"
    }, 
    {
      "city": "Uthai", 
      "lat": "14.3680", 
      "lng": "100.6713", 
      "country": "Thailand", 
      "iso2": "TH", 
      "admin_name": "Phra Nakhon Si Ayutthaya", 
      "capital": "minor", 
      "population": "6356", 
      "population_proper": "6356"
    }, 
    {
      "city": "Yaring", 
      "lat": "6.8680", 
      "lng": "101.3587", 
      "country": "Thailand", 
      "iso2": "TH", 
      "admin_name": "Pattani", 
      "capital": "minor", 
      "population": "6352", 
      "population_proper": "6352"
    }, 
    {
      "city": "Nong Chik", 
      "lat": "6.8436", 
      "lng": "101.1781", 
      "country": "Thailand", 
      "iso2": "TH", 
      "admin_name": "Pattani", 
      "capital": "minor", 
      "population": "6347", 
      "population_proper": "6347"
    }, 
    {
      "city": "Prathai", 
      "lat": "15.5341", 
      "lng": "102.7175", 
      "country": "Thailand", 
      "iso2": "TH", 
      "admin_name": "Nakhon Ratchasima", 
      "capital": "minor", 
      "population": "6273", 
      "population_proper": "6273"
    }, 
    {
      "city": "Phan Thong", 
      "lat": "13.4681", 
      "lng": "101.0953", 
      "country": "Thailand", 
      "iso2": "TH", 
      "admin_name": "Chon Buri", 
      "capital": "minor", 
      "population": "6228", 
      "population_proper": "6228"
    }, 
    {
      "city": "Wiset Chaichan", 
      "lat": "14.5890", 
      "lng": "100.3482", 
      "country": "Thailand", 
      "iso2": "TH", 
      "admin_name": "Ang Thong", 
      "capital": "minor", 
      "population": "6220", 
      "population_proper": "6220"
    }, 
    {
      "city": "Phanna Nikhom", 
      "lat": "17.3456", 
      "lng": "103.8478", 
      "country": "Thailand", 
      "iso2": "TH", 
      "admin_name": "Sakon Nakhon", 
      "capital": "minor", 
      "population": "6195", 
      "population_proper": "6195"
    }, 
    {
      "city": "Si Prachan", 
      "lat": "14.6204", 
      "lng": "100.1444", 
      "country": "Thailand", 
      "iso2": "TH", 
      "admin_name": "Suphan Buri", 
      "capital": "minor", 
      "population": "6185", 
      "population_proper": "6185"
    }, 
    {
      "city": "Ban Hua Saphan", 
      "lat": "13.1248", 
      "lng": "99.8716", 
      "country": "Thailand", 
      "iso2": "TH", 
      "admin_name": "Phetchaburi", 
      "capital": "", 
      "population": "6148", 
      "population_proper": "6148"
    }, 
    {
      "city": "Rong Kham", 
      "lat": "16.2710", 
      "lng": "103.7474", 
      "country": "Thailand", 
      "iso2": "TH", 
      "admin_name": "Kalasin", 
      "capital": "minor", 
      "population": "6122", 
      "population_proper": "6122"
    }, 
    {
      "city": "Nong Song Hong", 
      "lat": "15.7359", 
      "lng": "102.7909", 
      "country": "Thailand", 
      "iso2": "TH", 
      "admin_name": "Khon Kaen", 
      "capital": "minor", 
      "population": "6106", 
      "population_proper": "6106"
    }, 
    {
      "city": "Ban Dong Mafai", 
      "lat": "17.2750", 
      "lng": "103.9940", 
      "country": "Thailand", 
      "iso2": "TH", 
      "admin_name": "Sakon Nakhon", 
      "capital": "", 
      "population": "6083", 
      "population_proper": "6083"
    }, 
    {
      "city": "Lom Kao", 
      "lat": "16.8847", 
      "lng": "101.2336", 
      "country": "Thailand", 
      "iso2": "TH", 
      "admin_name": "Phetchabun", 
      "capital": "minor", 
      "population": "6065", 
      "population_proper": "6065"
    }, 
    {
      "city": "Ban Chiang", 
      "lat": "17.3999", 
      "lng": "103.2259", 
      "country": "Thailand", 
      "iso2": "TH", 
      "admin_name": "Udon Thani", 
      "capital": "", 
      "population": "6025", 
      "population_proper": "6025"
    }, 
    {
      "city": "Wanon Niwat", 
      "lat": "17.6358", 
      "lng": "103.7549", 
      "country": "Thailand", 
      "iso2": "TH", 
      "admin_name": "Sakon Nakhon", 
      "capital": "minor", 
      "population": "6020", 
      "population_proper": "6020"
    }, 
    {
      "city": "Pueai Noi", 
      "lat": "15.8707", 
      "lng": "102.9064", 
      "country": "Thailand", 
      "iso2": "TH", 
      "admin_name": "Khon Kaen", 
      "capital": "minor", 
      "population": "5946", 
      "population_proper": "5946"
    }, 
    {
      "city": "Pluak Daeng", 
      "lat": "12.9728", 
      "lng": "101.2143", 
      "country": "Thailand", 
      "iso2": "TH", 
      "admin_name": "Rayong", 
      "capital": "minor", 
      "population": "5891", 
      "population_proper": "5891"
    }, 
    {
      "city": "Ao Luek", 
      "lat": "8.3780", 
      "lng": "98.7211", 
      "country": "Thailand", 
      "iso2": "TH", 
      "admin_name": "Krabi", 
      "capital": "minor", 
      "population": "5880", 
      "population_proper": "5880"
    }, 
    {
      "city": "Kao Liao", 
      "lat": "15.8506", 
      "lng": "100.0792", 
      "country": "Thailand", 
      "iso2": "TH", 
      "admin_name": "Nakhon Sawan", 
      "capital": "minor", 
      "population": "5835", 
      "population_proper": "5835"
    }, 
    {
      "city": "Moeiwadi", 
      "lat": "16.3894", 
      "lng": "104.1572", 
      "country": "Thailand", 
      "iso2": "TH", 
      "admin_name": "Roi Et", 
      "capital": "minor", 
      "population": "5782", 
      "population_proper": "5782"
    }, 
    {
      "city": "Ban Talat Ko Ta Ba Ru", 
      "lat": "6.4585", 
      "lng": "101.3543", 
      "country": "Thailand", 
      "iso2": "TH", 
      "admin_name": "Yala", 
      "capital": "", 
      "population": "5777", 
      "population_proper": "5777"
    }, 
    {
      "city": "Huai Mek", 
      "lat": "16.6001", 
      "lng": "103.2264", 
      "country": "Thailand", 
      "iso2": "TH", 
      "admin_name": "Kalasin", 
      "capital": "minor", 
      "population": "5772", 
      "population_proper": "5772"
    }, 
    {
      "city": "Borabue", 
      "lat": "16.0370", 
      "lng": "103.1231", 
      "country": "Thailand", 
      "iso2": "TH", 
      "admin_name": "Maha Sarakham", 
      "capital": "minor", 
      "population": "5771", 
      "population_proper": "5771"
    }, 
    {
      "city": "Ban Chet Samian", 
      "lat": "13.6264", 
      "lng": "99.8293", 
      "country": "Thailand", 
      "iso2": "TH", 
      "admin_name": "Ratchaburi", 
      "capital": "", 
      "population": "5743", 
      "population_proper": "5743"
    }, 
    {
      "city": "Phayuha Khiri", 
      "lat": "15.4557", 
      "lng": "100.1351", 
      "country": "Thailand", 
      "iso2": "TH", 
      "admin_name": "Nakhon Sawan", 
      "capital": "minor", 
      "population": "5731", 
      "population_proper": "5731"
    }, 
    {
      "city": "Pong", 
      "lat": "19.1494", 
      "lng": "100.2753", 
      "country": "Thailand", 
      "iso2": "TH", 
      "admin_name": "Phayao", 
      "capital": "minor", 
      "population": "5719", 
      "population_proper": "5719"
    }, 
    {
      "city": "Non Sila", 
      "lat": "15.9617", 
      "lng": "102.6911", 
      "country": "Thailand", 
      "iso2": "TH", 
      "admin_name": "Khon Kaen", 
      "capital": "minor", 
      "population": "5682", 
      "population_proper": "5682"
    }, 
    {
      "city": "Phachi", 
      "lat": "14.4453", 
      "lng": "100.7367", 
      "country": "Thailand", 
      "iso2": "TH", 
      "admin_name": "Phra Nakhon Si Ayutthaya", 
      "capital": "minor", 
      "population": "5595", 
      "population_proper": "5595"
    },