[
  {
    "city": "Vientiane", 
    "lat": "17.9667", 
    "lng": "102.6000", 
    "country": "Laos", 
    "iso2": "LA", 
    "admin_name": "Viangchan", 
    "capital": "primary", 
    "population": "948487", 
    "population_proper": "948487"
  }, 
  {
    "city": "Xiangkhoang", 
    "lat": "19.4167", 
    "lng": "103.5000", 
    "country": "Laos", 
    "iso2": "LA", 
    "admin_name": "Xiangkhouang", 
    "capital": "", 
    "population": "267172", 
    "population_proper": "267172"
  }, 
  {
    "city": "Savannakhet", 
    "lat": "16.5500", 
    "lng": "104.7500", 
    "country": "Laos", 
    "iso2": "LA", 
    "admin_name": "Savannakhét", 
    "capital": "admin", 
    "population": "124000", 
    "population_proper": "124000"
  }, 
  {
    "city": "Pakxé", 
    "lat": "15.1167", 
    "lng": "105.7833", 
    "country": "Laos", 
    "iso2": "LA", 
    "admin_name": "Champasak", 
    "capital": "admin", 
    "population": "119848", 
    "population_proper": "119848"
  }, 
  {
    "city": "Thakhèk", 
    "lat": "17.4000", 
    "lng": "104.8000", 
    "country": "Laos", 
    "iso2": "LA", 
    "admin_name": "Khammouan", 
    "capital": "admin", 
    "population": "70000", 
    "population_proper": "70000"
  }, 
  {
    "city": "Louangphabang", 
    "lat": "19.8833", 
    "lng": "102.1333", 
    "country": "Laos", 
    "iso2": "LA", 
    "admin_name": "Louangphabang", 
    "capital": "admin", 
    "population": "53792", 
    "population_proper": "53792"
  }, 
  {
    "city": "Xam Nua", 
    "lat": "20.4150", 
    "lng": "104.0480", 
    "country": "Laos", 
    "iso2": "LA", 
    "admin_name": "Houaphan", 
    "capital": "admin", 
    "population": "46800", 
    "population_proper": "46800"
  }, 
  {
    "city": "Phônsavan", 
    "lat": "19.4600", 
    "lng": "103.1800", 
    "country": "Laos", 
    "iso2": "LA", 
    "admin_name": "Xiangkhouang", 
    "capital": "admin", 
    "population": "37507", 
    "population_proper": "37507"
  }, 
  {
    "city": "Louang Namtha", 
    "lat": "20.9500", 
    "lng": "101.4000", 
    "country": "Laos", 
    "iso2": "LA", 
    "admin_name": "Louangnamtha", 
    "capital": "admin", 
    "population": "28551", 
    "population_proper": "28551"
  }, 
  {
    "city": "Pakxan", 
    "lat": "18.3964", 
    "lng": "103.6558", 
    "country": "Laos", 
    "iso2": "LA", 
    "admin_name": "Bolikhamxai", 
    "capital": "admin", 
    "population": "27404", 
    "population_proper": "27404"
  }, 
  {
    "city": "Vangviang", 
    "lat": "18.9333", 
    "lng": "102.4500", 
    "country": "Laos", 
    "iso2": "LA", 
    "admin_name": "Viangchan", 
    "capital": "", 
    "population": "25000", 
    "population_proper": "25000"
  }, 
  {
    "city": "Attapu", 
    "lat": "14.8000", 
    "lng": "106.8333", 
    "country": "Laos", 
    "iso2": "LA", 
    "admin_name": "Attapu", 
    "capital": "admin", 
    "population": "19200", 
    "population_proper": "19200"
  }, 
  {
    "city": "Ban Houayxay", 
    "lat": "20.2631", 
    "lng": "100.4336", 
    "country": "Laos", 
    "iso2": "LA", 
    "admin_name": "Bokèo", 
    "capital": "admin", 
    "population": "17687", 
    "population_proper": "17687"
  }, 
  {
    "city": "Xaignabouli", 
    "lat": "19.2500", 
    "lng": "101.7500", 
    "country": "Laos", 
    "iso2": "LA", 
    "admin_name": "Xaignabouli", 
    "capital": "admin", 
    "population": "16200", 
    "population_proper": "16200"
  }, 
  {
    "city": "Phôngsali", 
    "lat": "21.6833", 
    "lng": "102.1000", 
    "country": "Laos", 
    "iso2": "LA", 
    "admin_name": "Phôngsali", 
    "capital": "admin", 
    "population": "15083", 
    "population_proper": "15083"
  }, 
  {
    "city": "Champasak", 
    "lat": "14.8833", 
    "lng": "105.8667", 
    "country": "Laos", 
    "iso2": "LA", 
    "admin_name": "Champasak", 
    "capital": "", 
    "population": "13400", 
    "population_proper": "13400"
  }, 
  {
    "city": "Salavan", 
    "lat": "15.7167", 
    "lng": "106.4167", 
    "country": "Laos", 
    "iso2": "LA", 
    "admin_name": "Salavan", 
    "capital": "admin", 
    "population": "5521", 
    "population_proper": "5521"
  }, 
  {
    "city": "Xai", 
    "lat": "20.6914", 
    "lng": "101.9861", 
    "country": "Laos", 
    "iso2": "LA", 
    "admin_name": "Oudômxai", 
    "capital": "admin", 
    "population": "", 
    "population_proper": ""
  }, 
  {
    "city": "Xékong", 
    "lat": "15.3503", 
    "lng": "106.7286", 
    "country": "Laos", 
    "iso2": "LA", 
    "admin_name": "Xékong", 
    "capital": "admin", 
    "population": "", 
    "population_proper": ""
  }, 
  {
    "city": "Anouvông", 
    "lat": "18.8989", 
    "lng": "103.0919", 
    "country": "Laos", 
    "iso2": "LA", 
    "admin_name": "Xaisômboun", 
    "capital": "admin", 
    "population": "", 
    "population_proper": ""
  }, 
  {
    "city": "Phôn-Hông", 
    "lat": "18.4953", 
    "lng": "102.4153", 
    "country": "Laos", 
    "iso2": "LA", 
    "admin_name": "Viangchan", 
    "capital": "admin", 
    "population": "", 
    "population_proper": ""
  }, 
  {
    "city": "Borikhan", 
    "lat": "18.5614", 
    "lng": "103.7236", 
    "country": "Laos", 
    "iso2": "LA", 
    "admin_name": "Bolikhamxai", 
    "capital": "minor", 
    "population": "", 
    "population_proper": ""
  }, 
  {
    "city": "Pakxong", 
    "lat": "15.1797", 
    "lng": "106.2378", 
    "country": "Laos", 
    "iso2": "LA", 
    "admin_name": "Champasak", 
    "capital": "minor", 
    "population": "", 
    "population_proper": ""
  }, 
  {
    "city": "Muang Kasi", 
    "lat": "19.2333", 
    "lng": "102.2500", 
    "country": "Laos", 
    "iso2": "LA", 
    "admin_name": "Viangchan", 
    "capital": "minor", 
    "population": "", 
    "population_proper": ""
  }, 
  {
    "city": "Ban Xiang-Ngeun", 
    "lat": "19.7586", 
    "lng": "102.1823", 
    "country": "Laos", 
    "iso2": "LA", 
    "admin_name": "Louangphabang", 
    "capital": "minor", 
    "population": "", 
    "population_proper": ""
  }
]