[
    {
        "lat": "18.787916",
        "long": "98.993583",
        "place_name": "วัดพระธาตุดอยสุเทพ",
        "sub_district": "สุเทพ",
        "district": "เมืองเชียงใหม่",
        "province": "เชียงใหม่",
        "zipcode": "50200"
    },
    {
        "lat": "20.2000",
        "long": "99.8167",
        "place_name": "ไร่ชาฉุยฟง",
        "sub_district": "ป่าซาง",
        "district": "แม่จัน",
        "province": "เชียงราย",
        "zipcode": "57110"
    },
    {
        "lat": "8.064944",
        "long": "98.912005",
        "place_name": "หมู่บ้านชาวเขา บ้านโคกคล้า",
        "sub_district": "เขาพนม",
        "district": "ทับปุด",
        "province": "พังงา",
        "zipcode": "82170"
    },
    {
        "lat": "7.834123",
        "long": "98.299405",
        "place_name": "อ่าวนาง",
        "sub_district": "อ่าวนาง",
        "district": "เมืองกระบี่",
        "province": "กระบี่",
        "zipcode": "81000"
    },
    {
        "lat": "13.7219876",
        "long": "100.5242054",
        "place_name": "วัดพระแก้ว",
        "sub_district": "ตลิ่งชัน",
        "district": "ทุ่งครุ",
        "province": "กรุงเทพมหานคร",
        "zipcode": "10140"
    },
    {
        "lat": "12.5684",
        "long": "99.9577",
        "place_name": "หัวหิน",
        "sub_district": "หัวหิน",
        "district": "หัวหิน",
        "province": "ประจวบคีรีขันธ์",
        "zipcode": "77110"
    },
    {
        "lat": "9.1450",
        "long": "99.3258",
        "place_name": "เกาะสมุย",
        "sub_district": "อ่างทอง",
        "district": "เกาะสมุย",
        "province": "สุราษฎร์ธานี",
        "zipcode": "84310"
    },
    {
        "lat": "8.0177721",
        "long": "98.8341972",
        "place_name": "อุทยานแห่งชาติหมู่เกาะสิมิลัน",
        "sub_district": "เกาะพระทอง",
        "district": "เมืองพังงา",
        "province": "พังงา",
        "zipcode": "82000"
    },
    {
        "lat": "9.1065339",
        "long": "98.3591121",
        "place_name": "เกาะพีพี",
        "sub_district": "เกาะพีพีเหนือ",
        "district": "เกาะพีพี",
        "province": "กระบี่",
        "zipcode": "81150"
    },
    {
        "lat": "7.6155725",
        "long": "99.0323546",
        "place_name": "อุทยานแห่งชาติหาดสำราญ",
        "sub_district": "เกาะลันตาน้อย",
        "district": "เมืองสุราษฎร์ธานี",
        "province": "สุราษฎร์ธานี",
        "zipcode": "84000"
    }
]